$GPGGA,000039.00,2813.3394211,N,11259.4854805,E,1,14,0.9,68.8111,M,-16.713,M,,*4B
$GPGSV,1,1,00,,,,,,,,,,,,,,,,*79
$BDGSV,5,1,17,147,36,197,41,153,44,117,41,150,42,213,41,145,23,251,41*67
$BDGSV,5,2,17,143,59,185,41,144,31,112,41,141,44,126,41,142,45,231,41*69
$BDGSV,5,3,17,178,55,006,41,159,34,048,41,188,70,352,41,160,52,026,41*60
$BDGSV,5,4,17,169,79,184,41,170,24,147,41,175,35,317,41,179,26,160,41*6C
$BDGSV,5,5,17,180,33,185,41,,,,,,,,,,,,*6E
$GPGGA,000040.00,2813.3394427,N,11259.4857616,E,1,14,0.9,68.0269,M,-16.713,M,,*4D
$GPGSV,1,1,00,,,,,,,,,,,,,,,,*79
$BDGSV,5,1,17,147,36,197,41,153,44,117,41,150,42,213,41,145,23,251,41*67
$BDGSV,5,2,17,143,59,185,41,144,31,112,42,141,44,126,41,142,45,231,41*6A
$BDGSV,5,3,17,178,55,006,41,159,34,048,41,188,70,352,41,160,52,026,41*60
$BDGSV,5,4,17,169,79,184,41,170,24,147,41,175,35,317,41,179,26,160,42*6F
$BDGSV,5,5,17,180,33,185,41,,,,,,,,,,,,*6E
$GPGGA,000041.00,2813.3394873,N,11259.4857449,E,1,14,0.9,68.1904,M,-16.713,M,,*48
$GPGSV,1,1,00,,,,,,,,,,,,,,,,*79
$BDGSV,5,1,17,147,36,197,41,153,44,117,41,150,42,213,41,145,23,251,41*67
$BDGSV,5,2,17,143,59,185,41,144,31,112,41,141,44,126,41,142,45,231,41*69
$BDGSV,5,3,17,178,55,006,41,159,34,048,41,188,70,352,41,160,52,026,41*60
$BDGSV,5,4,17,169,79,184,41,170,24,147,41,175,35,317,41,179,26,160,41*6C
$BDGSV,5,5,17,180,33,185,41,,,,,,,,,,,,*6E
$GPGGA,000042.00,2813.3396525,N,11259.4855950,E,1,14,0.9,68.9383,M,-16.713,M,,*4D
$GPGSV,1,1,00,,,,,,,,,,,,,,,,*79
$BDGSV,5,1,17,147,36,197,41,153,44,117,41,150,42,213,41,145,23,251,41*67
$BDGSV,5,2,17,143,59,185,41,144,31,112,41,141,44,126,41,142,45,231,41*69
$BDGSV,5,3,17,178,55,006,41,159,34,048,41,188,70,352,41,160,52,026,41*60
$BDGSV,5,4,17,169,79,184,41,170,24,147,41,175,35,317,41,179,26,160,41*6C
$BDGSV,5,5,17,180,33,185,41,,,,,,,,,,,,*6E
$GPGGA,000043.00,2813.3397033,N,11259.4855156,E,1,14,0.9,69.4408,M,-16.713,M,,*49
$GPGSV,1,1,00,,,,,,,,,,,,,,,,*79
$BDGSV,5,1,17,147,36,197,42,153,44,117,41,150,42,213,41,145,23,251,41*64
$BDGSV,5,2,17,143,59,185,41,144,31,112,41,141,44,126,41,142,45,231,41*69
$BDGSV,5,3,17,178,55,006,41,159,34,048,41,188,70,352,41,160,52,026,41*60
$BDGSV,5,4,17,169,79,184,41,170,24,147,41,175,35,317,41,179,26,160,41*6C
$BDGSV,5,5,17,180,33,185,41,,,,,,,,,,,,*6E
$GPGGA,000044.00,2813.3397132,N,11259.4854624,E,1,14,0.9,69.7982,M,-16.713,M,,*41
$GPGSV,1,1,00,,,,,,,,,,,,,,,,*79
$BDGSV,5,1,17,147,36,197,41,153,44,117,41,150,42,213,41,145,23,251,41*67
$BDGSV,5,2,17,143,59,185,41,144,31,112,41,141,44,126,41,142,45,231,41*69
$BDGSV,5,3,17,178,55,006,41,159,34,048,41,188,70,352,41,160,52,026,41*60
$BDGSV,5,4,17,169,79,184,41,170,24,147,41,175,35,317,41,179,26,160,41*6C
$BDGSV,5,5,17,180,33,185,41,,,,,,,,,,,,*6E
$GPGGA,000045.00,2813.3396453,N,11259.4853132,E,1,16,0.8,70.4818,M,-16.713,M,,*4E
$GPGSV,1,1,00,,,,,,,,,,,,,,,,*79
$BDGSV,5,1,17,147,36,197,42,153,49,320,41,150,42,213,41,145,23,251,41*6F
$BDGSV,5,2,17,143,59,185,41,144,31,112,41,141,44,126,41,142,45,231,41*69
$BDGSV,5,3,17,178,55,006,41,159,63,273,41,188,70,352,41,160,52,026,41*68
$BDGSV,5,4,17,169,79,184,41,170,24,147,41,175,35,317,41,179,26,160,41*6C
$BDGSV,5,5,17,180,33,185,42,,,,,,,,,,,,*6D
$GPGGA,000046.00,2813.3396064,N,11259.4852322,E,1,16,0.8,70.9420,M,-16.713,M,,*45
$GPGSV,1,1,00,,,,,,,,,,,,,,,,*79
$BDGSV,5,1,17,147,36,197,41,153,49,320,41,150,42,213,41,145,23,251,41*6C
$BDGSV,5,2,17,143,59,185,41,144,31,112,41,141,44,126,41,142,45,231,41*69
$BDGSV,5,3,17,178,55,006,41,159,63,273,41,188,70,352,41,160,52,026,41*68
$BDGSV,5,4,17,169,79,184,41,170,24,147,41,175,35,317,41,179,26,160,41*6C
$BDGSV,5,5,17,180,33,185,41,,,,,,,,,,,,*6E
$GPGGA,000047.00,2813.3395823,N,11259.4852096,E,1,16,0.8,71.1089,M,-16.713,M,,*4E
$GPGSV,1,1,00,,,,,,,,,,,,,,,,*79
$BDGSV,5,1,17,147,36,197,41,153,49,320,41,150,42,213,41,145,23,251,41*6C
$BDGSV,5,2,17,143,59,185,41,144,31,112,41,141,44,126,41,142,45,231,41*69
$BDGSV,5,3,17,178,55,006,41,159,63,273,41,188,70,352,41,160,52,026,41*68
$BDGSV,5,4,17,169,79,184,41,170,24,147,41,175,35,317,41,179,26,160,41*6C
$BDGSV,5,5,17,180,33,185,42,,,,,,,,,,,,*6D
$GPGGA,000048.00,2813.3395785,N,11259.4851800,E,1,16,0.8,71.1972,M,-16.713,M,,*4B
$GPGSV,1,1,00,,,,,,,,,,,,,,,,*79
$BDGSV,5,1,17,147,36,197,41,153,49,320,41,150,42,213,41,145,23,251,41*6C
$BDGSV,5,2,17,143,59,185,41,144,31,112,41,141,44,126,41,142,45,231,41*69
$BDGSV,5,3,17,178,55,006,41,159,63,273,41,188,70,352,42,160,52,026,42*68
$BDGSV,5,4,17,169,79,184,41,170,24,147,41,175,35,317,41,179,26,160,41*6C
$BDGSV,5,5,17,180,33,185,42,,,,,,,,,,,,*6D
$GPGGA,000049.00,2813.3395778,N,11259.4851617,E,1,16,0.8,71.2883,M,-16.713,M,,*4C
$GPGSV,1,1,00,,,,,,,,,,,,,,,,*79
$BDGSV,5,1,17,147,36,197,42,153,49,320,42,150,42,213,41,145,23,251,42*6F
$BDGSV,5,2,17,143,59,185,41,144,31,112,41,141,44,126,42,142,45,231,41*6A
$BDGSV,5,3,17,178,55,006,42,159,63,273,42,188,70,352,41,160,52,026,42*6B
$BDGSV,5,4,17,169,79,184,42,170,24,147,41,175,35,317,42,179,26,160,42*6F
$BDGSV,5,5,17,180,33,185,42,,,,,,,,,,,,*6D
$GPGGA,000050.00,2813.3395823,N,11259.4851457,E,1,16,0.8,71.3157,M,-16.713,M,,*42
$GPGSV,1,1,00,,,,,,,,,,,,,,,,*79
$BDGSV,5,1,17,147,36,197,42,153,49,320,42,150,42,213,41,145,23,251,41*6C
$BDGSV,5,2,17,143,59,185,41,144,31,112,41,141,44,126,41,142,45,231,41*69
$BDGSV,5,3,17,178,55,006,41,159,63,273,41,188,70,352,41,160,52,026,41*68
$BDGSV,5,4,17,169,79,184,41,170,24,147,42,175,35,317,41,179,26,160,41*6F
$BDGSV,5,5,17,180,33,185,41,,,,,,,,,,,,*6E
$GPGGA,000051.00,2813.3395628,N,11259.4851356,E,1,16,0.8,71.5108,M,-16.713,M,,*4C
$GPGSV,1,1,00,,,,,,,,,,,,,,,,*79
$BDGSV,5,1,17,147,36,197,41,153,49,320,42,150,42,213,42,145,23,251,41*6C
$BDGSV,5,2,17,143,59,185,41,144,31,112,41,141,44,126,42,142,45,231,42*69
$BDGSV,5,3,17,178,55,006,41,159,63,273,41,188,70,352,41,160,52,026,42*6B
$BDGSV,5,4,17,169,79,184,41,170,24,147,41,175,35,317,41,179,26,160,42*6F
$BDGSV,5,5,17,180,33,185,41,,,,,,,,,,,,*6E
$GPGGA,000052.00,2813.3395533,N,11259.4851263,E,1,16,0.8,71.6377,M,-16.713,M,,*48
$GPGSV,1,1,00,,,,,,,,,,,,,,,,*79
$BDGSV,5,1,17,147,36,197,41,153,49,320,41,150,42,213,41,145,23,251,41*6C
$BDGSV,5,2,17,143,59,185,41,144,31,112,41,141,44,126,42,142,45,231,41*6A
$BDGSV,5,3,17,178,55,006,42,159,63,273,41,188,70,352,41,160,52,026,41*6B
$BDGSV,5,4,17,169,79,184,42,170,24,147,41,175,35,317,41,179,26,160,42*6C
$BDGSV,5,5,17,180,33,185,42,,,,,,,,,,,,*6D
$GPGGA,000053.00,2813.3395476,N,11259.4851305,E,1,16,0.8,71.6379,M,-16.713,M,,*46
$GPGSV,1,1,00,,,,,,,,,,,,,,,,*79
$BDGSV,5,1,17,147,36,197,42,153,49,320,41,150,42,213,41,145,23,251,41*6F
$BDGSV,5,2,17,143,59,185,42,144,31,112,41,141,44,126,41,142,45,231,41*6A
$BDGSV,5,3,17,178,55,006,41,159,63,273,41,188,70,352,41,160,52,026,42*6B
$BDGSV,5,4,17,169,79,184,41,170,24,147,41,175,35,317,41,179,26,160,42*6F
$BDGSV,5,5,17,180,33,185,41,,,,,,,,,,,,*6E
$GPGGA,000054.00,2813.3395456,N,11259.4851176,E,1,16,0.8,71.5785,M,-16.713,M,,*41
$GPGSV,1,1,00,,,,,,,,,,,,,,,,*79
$BDGSV,5,1,17,147,36,197,41,153,49,320,41,150,42,213,41,145,23,251,41*6C
$BDGSV,5,2,17,143,59,185,41,144,31,112,41,141,44,126,41,142,45,231,41*69
$BDGSV,5,3,17,178,55,006,41,159,63,273,41,188,70,352,41,160,52,026,41*68
$BDGSV,5,4,17,169,79,184,41,170,24,147,41,175,35,317,41,179,26,160,41*6C
$BDGSV,5,5,17,180,33,185,41,,,,,,,,,,,,*6E
$GPGGA,000055.00,2813.3395197,N,11259.4850503,E,1,16,0.8,71.6294,M,-16.713,M,,*49
$GPGSV,1,1,00,,,,,,,,,,,,,,,,*79
$BDGSV,5,1,17,147,36,197,41,153,49,320,41,150,42,213,41,145,23,251,41*6C
$BDGSV,5,2,17,143,59,185,41,144,31,112,41,141,44,126,41,142,45,231,41*69
$BDGSV,5,3,17,178,55,006,41,159,63,273,41,188,70,352,41,160,52,026,41*68
$BDGSV,5,4,17,169,79,184,41,170,24,147,41,175,35,317,41,179,26,160,41*6C
$BDGSV,5,5,17,180,33,185,41,,,,,,,,,,,,*6E
$GPGGA,000056.00,2813.3394953,N,11259.4849957,E,1,16,0.8,71.6741,M,-16.713,M,,*43
$GPGSV,1,1,00,,,,,,,,,,,,,,,,*79
$BDGSV,5,1,18,147,36,197,41,153,49,320,41,150,42,213,41,148,73,162,41*68
$BDGSV,5,2,18,145,23,251,41,143,59,185,41,144,31,112,41,141,44,126,41*67
$BDGSV,5,3,18,142,45,231,41,178,55,006,41,159,63,273,41,188,70,352,41*65
$BDGSV,5,4,18,160,52,026,41,169,79,184,41,170,24,147,41,175,35,317,41*6B
$BDGSV,5,5,18,179,26,160,41,180,33,185,41,,,,,,,,*68
$GPGGA,000057.00,2813.3394939,N,11259.4849444,E,1,17,0.8,71.6103,M,-16.713,M,,*40
$GPGSV,1,1,00,,,,,,,,,,,,,,,,*79
$BDGSV,5,1,18,147,36,197,42,153,49,320,41,150,42,213,41,148,52,342,41*68
$BDGSV,5,2,18,145,23,251,41,143,59,185,42,144,31,112,41,141,44,126,41*64
$BDGSV,5,3,18,142,45,231,41,178,55,006,41,159,63,273,41,188,70,352,41*65
$BDGSV,5,4,18,160,52,026,41,169,79,184,41,170,24,147,41,175,35,317,41*6B
$BDGSV,5,5,18,179,26,160,41,180,33,185,41,,,,,,,,*68
$GPGGA,000058.00,2813.3394540,N,11259.4848554,E,1,17,0.8,71.6472,M,-16.713,M,,*4F
$GPGSV,1,1,00,,,,,,,,,,,,,,,,*79
$BDGSV,5,1,18,147,36,197,41,153,49,320,41,150,42,213,41,148,52,342,41*6B
$BDGSV,5,2,18,145,23,251,41,143,59,185,41,144,31,112,41,141,44,126,41*67
$BDGSV,5,3,18,142,45,231,41,178,55,006,41,159,63,273,41,188,70,352,41*65
$BDGSV,5,4,18,160,52,026,41,169,79,184,41,170,24,147,41,175,35,317,41*6B
$BDGSV,5,5,18,179,26,160,41,180,33,185,41,,,,,,,,*68
$GPGGA,000059.00,2813.3393791,N,11259.4847433,E,1,17,0.8,71.8698,M,-16.713,M,,*40
$GPGSV,1,1,00,,,,,,,,,,,,,,,,*79
$BDGSV,5,1,18,147,36,197,41,153,49,320,41,150,42,213,41,148,52,342,41*6B
$BDGSV,5,2,18,145,23,251,41,143,59,185,41,144,31,112,41,141,44,126,41*67
$BDGSV,5,3,18,142,45,231,41,178,55,006,41,159,63,273,41,188,70,352,41*65
$BDGSV,5,4,18,160,52,026,41,169,79,184,41,170,24,147,41,175,35,317,41*6B
$BDGSV,5,5,18,179,26,160,41,180,33,185,41,,,,,,,,*68
$GPGGA,000100.00,2813.3393303,N,11259.4846943,E,1,17,0.8,71.9577,M,-16.713,M,,*4A
$GPGSV,1,1,00,,,,,,,,,,,,,,,,*79
$BDGSV,5,1,18,147,36,197,41,153,49,320,41,150,42,213,42,148,52,342,41*68
$BDGSV,5,2,18,145,23,251,41,143,59,185,41,144,31,112,41,141,44,126,41*67
$BDGSV,5,3,18,142,45,231,42,178,55,006,41,159,63,273,41,188,70,352,41*66
$BDGSV,5,4,18,160,52,026,41,169,79,184,41,170,24,147,41,175,35,317,41*6B
$BDGSV,5,5,18,179,26,160,41,180,33,185,41,,,,,,,,*68
$GPGGA,000101.00,2813.3393180,N,11259.4846844,E,1,17,0.8,71.9577,M,-16.713,M,,*44
$GPGSV,1,1,00,,,,,,,,,,,,,,,,*79
$BDGSV,5,1,18,147,36,197,41,153,49,320,41,150,42,213,41,148,52,342,42*68
$BDGSV,5,2,18,145,23,251,41,143,59,185,41,144,31,112,41,141,44,126,41*67
$BDGSV,5,3,18,142,45,231,41,178,55,006,41,159,63,273,41,188,70,352,41*65
$BDGSV,5,4,18,160,52,026,41,169,79,184,41,170,24,147,41,175,35,317,41*6B
$BDGSV,5,5,18,179,26,160,42,180,33,185,41,,,,,,,,*6B
$GPGGA,000102.00,2813.3393020,N,11259.4846636,E,1,17,0.8,71.9492,M,-16.713,M,,*4D
$GPGSV,1,1,00,,,,,,,,,,,,,,,,*79
$BDGSV,5,1,18,147,36,197,41,153,49,320,41,150,42,213,41,148,52,342,41*6B
$BDGSV,5,2,18,145,23,251,41,143,59,185,41,144,31,112,41,141,44,126,41*67
$BDGSV,5,3,18,142,45,231,41,178,55,006,41,159,63,273,41,188,70,352,41*65
$BDGSV,5,4,18,160,52,026,41,169,79,184,41,170,24,147,41,175,35,317,41*6B
$BDGSV,5,5,18,179,26,160,41,180,33,185,41,,,,,,,,*68
$GPGGA,000103.00,2813.3392765,N,11259.4846280,E,1,17,0.8,71.9714,M,-16.713,M,,*4F
$GPGSV,1,1,00,,,,,,,,,,,,,,,,*79
$BDGSV,5,1,18,147,36,197,41,153,49,320,41,150,42,213,41,148,52,342,41*6B
$BDGSV,5,2,18,145,23,251,41,143,59,185,41,144,31,112,41,141,44,126,41*67
$BDGSV,5,3,18,142,45,231,41,178,55,006,41,159,63,273,41,188,70,352,41*65
$BDGSV,5,4,18,160,52,026,41,169,79,184,41,170,24,147,41,175,35,317,41*6B
$BDGSV,5,5,18,179,26,160,41,180,33,185,41,,,,,,,,*68
$GPGGA,000104.00,2813.3392722,N,11259.4846087,E,1,17,0.8,71.9645,M,-16.713,M,,*4B
$GPGSV,1,1,00,,,,,,,,,,,,,,,,*79
$BDGSV,5,1,18,147,36,197,41,153,49,320,41,150,42,213,41,148,52,342,41*6B
$BDGSV,5,2,18,145,23,251,41,143,59,185,41,144,31,112,41,141,44,126,41*67
$BDGSV,5,3,18,142,45,231,41,178,55,006,41,159,63,273,41,188,70,352,41*65
$BDGSV,5,4,18,160,52,026,42,169,79,184,41,170,24,147,41,175,35,317,41*68
$BDGSV,5,5,18,179,26,160,41,180,33,185,41,,,,,,,,*68
$GPGGA,000105.00,2813.3392716,N,11259.4846058,E,1,17,0.8,71.9671,M,-16.713,M,,*48
$GPGSV,1,1,00,,,,,,,,,,,,,,,,*79
$BDGSV,5,1,18,147,36,197,41,153,49,320,41,150,42,213,41,148,52,342,41*6B
$BDGSV,5,2,18,145,23,251,41,143,59,185,41,144,31,112,41,141,44,126,41*67
$BDGSV,5,3,18,142,45,231,41,178,55,006,41,159,63,273,41,188,70,352,41*65
$BDGSV,5,4,18,160,52,026,41,169,79,184,41,170,24,147,41,175,35,317,41*6B
$BDGSV,5,5,18,179,26,160,41,180,33,185,41,,,,,,,,*68
$GPGGA,000106.00,2813.3392701,N,11259.4846015,E,1,17,0.8,71.9666,M,-16.713,M,,*42
$GPGSV,1,1,00,,,,,,,,,,,,,,,,*79
$BDGSV,5,1,18,147,36,197,41,153,49,320,41,150,42,213,41,148,52,342,41*6B
$BDGSV,5,2,18,145,23,251,41,143,59,185,41,144,31,112,41,141,44,126,41*67
$BDGSV,5,3,18,142,45,231,41,178,55,006,41,159,63,273,41,188,70,352,41*65
$BDGSV,5,4,18,160,52,026,41,169,79,184,41,170,24,147,41,175,35,317,41*6B
$BDGSV,5,5,18,179,26,160,41,180,33,185,41,,,,,,,,*68
$GPGGA,000107.00,2813.3392678,N,11259.4845980,E,1,17,0.8,71.9689,M,-16.713,M,,*4B
$GPGSV,1,1,00,,,,,,,,,,,,,,,,*79
$BDGSV,5,1,18,147,36,197,41,153,49,320,41,150,42,213,41,148,52,342,41*6B
$BDGSV,5,2,18,145,23,251,41,143,59,185,41,144,31,112,41,141,44,126,41*67
$BDGSV,5,3,18,142,45,231,41,178,55,006,41,159,63,273,41,188,70,352,41*65
$BDGSV,5,4,18,160,52,026,41,169,79,184,41,170,24,147,41,175,35,317,41*6B
$BDGSV,5,5,18,179,26,160,41,180,33,185,41,,,,,,,,*68
$GPGGA,000108.00,2813.3392660,N,11259.4845958,E,1,17,0.8,71.9695,M,-16.713,M,,*45
$GPGSV,1,1,00,,,,,,,,,,,,,,,,*79
$BDGSV,5,1,18,147,36,197,41,153,49,320,41,150,42,213,41,148,52,342,41*6B
$BDGSV,5,2,18,145,23,251,41,143,59,185,41,144,31,112,41,141,44,126,41*67
$BDGSV,5,3,18,142,45,231,41,178,55,006,41,159,63,273,41,188,70,352,41*65
$BDGSV,5,4,18,160,52,026,42,169,79,184,42,170,24,147,41,175,35,317,41*6B
$BDGSV,5,5,18,179,26,160,42,180,33,185,41,,,,,,,,*6B
$GPGGA,000109.00,2813.3392634,N,11259.4845925,E,1,17,0.8,71.9756,M,-16.713,M,,*41
$GPGSV,1,1,00,,,,,,,,,,,,,,,,*79
$BDGSV,5,1,18,147,36,197,41,153,49,320,41,150,42,213,41,148,52,342,41*6B
$BDGSV,5,2,18,145,23,251,41,143,59,185,41,144,31,112,41,141,44,126,41*67
$BDGSV,5,3,18,142,45,231,41,178,55,006,41,159,63,273,41,188,70,352,41*65
$BDGSV,5,4,18,160,52,026,41,169,79,184,41,170,24,147,41,175,35,317,41*6B
$BDGSV,5,5,18,179,26,160,41,180,33,185,41,,,,,,,,*68
$GPGGA,000110.00,2813.3392600,N,11259.4845895,E,1,17,0.8,71.9827,M,-16.713,M,,*4D
$GPGSV,1,1,00,,,,,,,,,,,,,,,,*79
$BDGSV,5,1,18,147,36,197,41,153,49,320,41,150,42,213,41,148,52,342,41*6B
$BDGSV,5,2,18,145,23,251,41,143,59,185,41,144,31,112,41,141,44,126,41*67
$BDGSV,5,3,18,142,45,231,41,178,55,006,41,159,63,273,41,188,70,352,41*65
$BDGSV,5,4,18,160,52,026,41,169,79,184,42,170,24,147,41,175,35,317,41*68
$BDGSV,5,5,18,179,26,160,41,180,33,185,41,,,,,,,,*68
$GPGGA,000111.00,2813.3392585,N,11259.4845868,E,1,18,0.8,71.9792,M,-16.713,M,,*4E
$GPGSV,1,1,00,,,,,,,,,,,,,,,,*79
$BDGSV,5,1,19,147,36,197,41,153,49,320,41,150,42,213,41,148,52,342,41*6A
$BDGSV,5,2,19,145,23,251,40,143,59,185,41,144,31,112,41,141,44,126,41*67
$BDGSV,5,3,19,142,45,231,41,156,20,165,41,178,55,006,41,159,63,273,41*64
$BDGSV,5,4,19,188,70,352,41,160,52,026,41,169,79,184,42,170,24,147,41*6B
$BDGSV,5,5,19,175,35,317,41,179,26,160,41,180,33,185,41,,,,*6C
$GPGGA,000112.00,2813.3392581,N,11259.4845883,E,1,18,0.8,71.9714,M,-16.713,M,,*42
$GPGSV,1,1,00,,,,,,,,,,,,,,,,*79
$BDGSV,5,1,19,147,36,197,41,153,49,320,41,150,42,213,41,148,52,342,41*6A
$BDGSV,5,2,19,145,23,251,41,143,59,185,41,144,31,112,41,141,44,126,41*66
$BDGSV,5,3,19,142,45,231,42,156,20,165,41,178,55,006,41,159,63,273,41*67
$BDGSV,5,4,19,188,70,352,41,160,52,026,41,169,79,184,41,170,24,147,41*68
$BDGSV,5,5,19,175,35,317,41,179,26,160,41,180,33,185,41,,,,*6C
$GPGGA,000113.00,2813.3392567,N,11259.4845918,E,1,18,0.8,71.9445,M,-16.713,M,,*4F
$GPGSV,1,1,00,,,,,,,,,,,,,,,,*79
$BDGSV,5,1,19,147,36,197,41,153,49,320,41,150,42,213,41,148,52,342,41*6A
$BDGSV,5,2,19,145,23,251,41,143,59,185,41,144,31,112,41,141,44,126,41*66
$BDGSV,5,3,19,142,45,231,41,156,20,165,41,178,55,006,41,159,63,273,41*64
$BDGSV,5,4,19,188,70,352,41,160,52,026,41,169,79,184,41,170,24,147,41*68
$BDGSV,5,5,19,175,35,317,41,179,26,160,41,180,33,185,41,,,,*6C
$GPGGA,000114.00,2813.3392558,N,11259.4845900,E,1,18,0.8,71.9365,M,-16.713,M,,*48
$GPGSV,1,1,00,,,,,,,,,,,,,,,,*79
$BDGSV,5,1,19,147,36,197,41,153,49,320,41,150,42,213,41,148,52,342,41*6A
$BDGSV,5,2,19,145,23,251,41,143,59,185,41,144,31,112,41,141,44,126,41*66
$BDGSV,5,3,19,142,45,231,41,156,20,165,41,178,55,006,41,159,63,273,41*64
$BDGSV,5,4,19,188,70,352,41,160,52,026,41,169,79,184,41,170,24,147,41*68
$BDGSV,5,5,19,175,35,317,41,179,26,160,41,180,33,185,41,,,,*6C
$GPGGA,000115.00,2813.3392535,N,11259.4845883,E,1,18,0.8,71.9393,M,-16.713,M,,*41
$GPGSV,1,1,00,,,,,,,,,,,,,,,,*79
$BDGSV,5,1,19,147,36,197,42,153,49,320,41,150,42,213,42,148,52,342,41*6A
$BDGSV,5,2,19,145,23,251,42,143,59,185,41,144,31,112,41,141,44,126,42*66
$BDGSV,5,3,19,142,45,231,41,156,20,165,41,178,55,006,41,159,63,273,41*64
$BDGSV,5,4,19,188,70,352,41,160,52,026,41,169,79,184,41,170,24,147,41*68
$BDGSV,5,5,19,175,35,317,41,179,26,160,41,180,33,185,41,,,,*6C
$GPGGA,000116.00,2813.3392498,N,11259.4845872,E,1,18,0.8,71.9471,M,-16.713,M,,*41
$GPGSV,1,1,00,,,,,,,,,,,,,,,,*79
$BDGSV,5,1,19,147,36,197,41,153,49,320,41,150,42,213,41,148,52,342,41*6A
$BDGSV,5,2,19,145,23,251,41,143,59,185,41,144,31,112,41,141,44,126,41*66
$BDGSV,5,3,19,142,45,231,41,156,20,165,41,178,55,006,41,159,63,273,41*64
$BDGSV,5,4,19,188,70,352,41,160,52,026,41,169,79,184,41,170,24,147,41*68
$BDGSV,5,5,19,175,35,317,41,179,26,160,41,180,33,185,41,,,,*6C
$GPGGA,000117.00,2813.3392493,N,11259.4845883,E,1,18,0.8,71.9361,M,-16.713,M,,*43
$GPGSV,1,1,00,,,,,,,,,,,,,,,,*79
$BDGSV,5,1,19,147,36,197,41,153,49,320,41,150,42,213,41,148,52,342,42*69
$BDGSV,5,2,19,145,23,251,42,143,59,185,41,144,31,112,41,141,44,126,42*66
$BDGSV,5,3,19,142,45,231,41,156,20,165,41,178,55,006,41,159,63,273,41*64
$BDGSV,5,4,19,188,70,352,42,160,52,026,41,169,79,184,41,170,24,147,42*68
$BDGSV,5,5,19,175,35,317,41,179,26,160,41,180,33,185,41,,,,*6C
$GPGGA,000118.00,2813.3392492,N,11259.4845881,E,1,18,0.8,71.9303,M,-16.713,M,,*4B
$GPGSV,1,1,00,,,,,,,,,,,,,,,,*79
$BDGSV,5,1,19,147,36,197,41,153,49,320,41,150,42,213,41,148,52,342,41*6A
$BDGSV,5,2,19,145,23,251,41,143,59,185,41,144,31,112,41,141,44,126,41*66
$BDGSV,5,3,19,142,45,231,41,156,20,165,41,178,55,006,41,159,63,273,41*64
$BDGSV,5,4,19,188,70,352,41,160,52,026,41,169,79,184,41,170,24,147,40*69
$BDGSV,5,5,19,175,35,317,41,179,26,160,41,180,33,185,41,,,,*6C
$GPGGA,000119.00,2813.3392467,N,11259.4845846,E,1,18,0.8,71.9310,M,-16.713,M,,*49
$GPGSV,1,1,00,,,,,,,,,,,,,,,,*79
$BDGSV,5,1,19,147,36,197,41,153,49,320,41,150,42,213,41,148,52,342,41*6A
$BDGSV,5,2,19,145,23,251,41,143,59,185,41,144,31,112,41,141,44,126,41*66
$BDGSV,5,3,19,142,45,231,41,156,20,165,41,178,55,006,41,159,63,273,41*64
$BDGSV,5,4,19,188,70,352,41,160,52,026,41,169,79,184,41,170,24,147,41*68
$BDGSV,5,5,19,175,35,317,41,179,26,160,41,180,33,185,41,,,,*6C
$GPGGA,000120.00,2813.3392442,N,11259.4845820,E,1,18,0.8,71.9335,M,-16.713,M,,*43
$GPGSV,1,1,00,,,,,,,,,,,,,,,,*79
$BDGSV,5,1,19,147,36,197,41,153,49,320,41,150,42,213,41,148,52,342,41*6A
$BDGSV,5,2,19,145,23,251,41,143,59,185,41,144,31,112,41,141,44,126,41*66
$BDGSV,5,3,19,142,45,231,41,156,20,165,41,178,55,006,41,159,63,273,41*64
$BDGSV,5,4,19,188,70,352,41,160,52,026,41,169,79,184,41,170,24,147,41*68
$BDGSV,5,5,19,175,35,317,41,179,26,160,41,180,33,185,41,,,,*6C
$GPGGA,000121.00,2813.3392443,N,11259.4845814,E,1,18,0.8,71.9300,M,-16.713,M,,*42
$GPGSV,1,1,00,,,,,,,,,,,,,,,,*79
$BDGSV,5,1,19,147,36,197,41,153,49,320,41,150,42,213,41,148,52,342,41*6A
$BDGSV,5,2,19,145,23,251,42,143,59,185,41,144,31,112,41,141,44,126,41*65
$BDGSV,5,3,19,142,45,231,41,156,20,165,41,178,55,006,41,159,63,273,41*64
$BDGSV,5,4,19,188,70,352,41,160,52,026,41,169,79,184,41,170,24,147,41*68
$BDGSV,5,5,19,175,35,317,41,179,26,160,41,180,33,185,41,,,,*6C
$GPGGA,000122.00,2813.3392432,N,11259.4845797,E,1,18,0.8,71.9250,M,-16.713,M,,*47
$GPGSV,1,1,00,,,,,,,,,,,,,,,,*79
$BDGSV,5,1,19,147,36,197,41,153,49,320,41,150,42,213,41,148,52,342,41*6A
$BDGSV,5,2,19,145,23,251,41,143,59,185,41,144,31,112,41,141,44,126,41*66
$BDGSV,5,3,19,142,45,231,41,156,20,165,41,178,55,006,41,159,63,273,41*64
$BDGSV,5,4,19,188,70,352,41,160,52,026,41,169,79,184,41,170,24,147,41*68
$BDGSV,5,5,19,175,35,317,41,179,26,160,41,180,33,185,41,,,,*6C
$GPGGA,000123.00,2813.3392418,N,11259.4845769,E,1,18,0.8,71.9238,M,-16.713,M,,*41
$GPGSV,1,1,00,,,,,,,,,,,,,,,,*79
$BDGSV,5,1,19,147,36,197,41,153,49,320,41,150,42,213,41,148,52,342,41*6A
$BDGSV,5,2,19,145,23,251,41,143,59,185,41,144,31,112,42,141,44,126,41*65
$BDGSV,5,3,19,142,45,231,41,156,20,165,41,178,55,006,41,159,63,273,41*64
$BDGSV,5,4,19,188,70,352,41,160,52,026,41,169,79,184,41,170,24,147,41*68
$BDGSV,5,5,19,175,35,317,41,179,26,160,41,180,33,185,41,,,,*6C
$GPGGA,000124.00,2813.3392402,N,11259.4845747,E,1,18,0.8,71.9249,M,-16.713,M,,*47
$GPGSV,1,1,00,,,,,,,,,,,,,,,,*79
$BDGSV,5,1,19,147,36,197,41,153,49,320,41,150,42,213,41,148,52,342,41*6A
$BDGSV,5,2,19,145,23,251,41,143,59,185,41,144,31,112,41,141,44,126,41*66
$BDGSV,5,3,19,142,45,231,41,156,20,165,41,178,55,006,41,159,63,273,41*64
$BDGSV,5,4,19,188,70,352,41,160,52,026,41,169,79,184,41,170,24,147,41*68
$BDGSV,5,5,19,175,35,317,41,179,26,160,41,180,33,185,41,,,,*6C
$GPGGA,000125.00,2813.3392393,N,11259.4845726,E,1,18,0.8,71.9232,M,-16.713,M,,*42
$GPGSV,1,1,00,,,,,,,,,,,,,,,,*79
$BDGSV,5,1,19,147,36,197,41,153,49,320,41,150,42,213,41,148,52,342,41*6A
$BDGSV,5,2,19,145,23,251,41,143,59,185,41,144,31,112,41,141,44,126,41*66
$BDGSV,5,3,19,142,45,231,41,156,20,165,41,178,55,006,41,159,63,273,41*64
$BDGSV,5,4,19,188,70,352,41,160,52,026,41,169,79,184,41,170,24,147,41*68
$BDGSV,5,5,19,175,35,317,41,179,26,160,41,180,33,185,42,,,,*6F
$GPGGA,000126.00,2813.3392367,N,11259.4845702,E,1,18,0.8,71.9240,M,-16.713,M,,*49
$GPGSV,1,1,00,,,,,,,,,,,,,,,,*79
$BDGSV,5,1,19,147,36,197,41,153,49,320,41,150,42,213,41,148,52,342,41*6A
$BDGSV,5,2,19,145,23,251,41,143,59,185,41,144,31,112,41,141,44,126,41*66
$BDGSV,5,3,19,142,45,231,41,156,20,165,41,178,55,006,41,159,63,273,41*64
$BDGSV,5,4,19,188,70,352,41,160,52,026,41,169,79,184,41,170,24,147,41*68
$BDGSV,5,5,19,175,35,317,41,179,26,160,41,180,33,185,41,,,,*6C
$GPGGA,000127.00,2813.3392346,N,11259.4845679,E,1,18,0.8,71.9245,M,-16.713,M,,*43
$GPGSV,1,1,00,,,,,,,,,,,,,,,,*79
$BDGSV,5,1,19,147,36,197,41,153,49,320,41,150,42,213,41,148,52,342,41*6A
$BDGSV,5,2,19,145,23,251,41,143,59,185,41,144,31,112,41,141,44,126,41*66
$BDGSV,5,3,19,142,45,231,41,156,20,165,41,178,55,006,41,159,63,273,41*64
$BDGSV,5,4,19,188,70,352,41,160,52,026,41,169,79,184,41,170,24,147,41*68
$BDGSV,5,5,19,175,35,317,41,179,26,160,41,180,33,185,41,,,,*6C
$GPGGA,000128.00,2813.3392323,N,11259.4845658,E,1,18,0.8,71.9266,M,-16.713,M,,*4D
$GPGSV,1,1,00,,,,,,,,,,,,,,,,*79
$BDGSV,5,1,19,147,36,197,41,153,49,320,41,150,42,213,41,148,52,342,41*6A
$BDGSV,5,2,19,145,23,251,41,143,59,185,42,144,31,112,41,141,44,126,41*65
$BDGSV,5,3,19,142,45,231,41,156,20,165,41,178,55,006,41,159,63,273,41*64
$BDGSV,5,4,19,188,70,352,41,160,52,026,41,169,79,184,41,170,24,147,41*68
$BDGSV,5,5,19,175,35,317,41,179,26,160,41,180,33,185,41,,,,*6C
$GPGGA,000129.00,2813.3392318,N,11259.4845651,E,1,18,0.8,71.9228,M,-16.713,M,,*47
$GPGSV,1,1,00,,,,,,,,,,,,,,,,*79
$BDGSV,5,1,19,147,36,197,41,153,49,320,41,150,42,213,41,148,52,342,41*6A
$BDGSV,5,2,19,145,23,251,42,143,59,185,41,144,31,112,41,141,44,126,41*65
$BDGSV,5,3,19,142,45,231,41,156,20,165,41,178,55,006,41,159,63,273,41*64
$BDGSV,5,4,19,188,70,352,41,160,52,026,41,169,79,184,41,170,24,147,41*68
$BDGSV,5,5,19,175,35,317,41,179,26,160,41,180,33,185,41,,,,*6C
$GPGGA,000130.00,2813.3392303,N,11259.4845609,E,1,18,0.8,71.9212,M,-16.713,M,,*41
$GPGSV,1,1,00,,,,,,,,,,,,,,,,*79
$BDGSV,5,1,19,147,36,197,41,153,49,320,42,150,42,213,41,148,52,342,41*69
$BDGSV,5,2,19,145,23,251,41,143,59,185,41,144,31,112,41,141,44,126,41*66
$BDGSV,5,3,19,142,45,231,41,156,20,165,41,178,55,006,41,159,63,273,41*64
$BDGSV,5,4,19,188,70,352,41,160,52,026,41,169,79,184,41,170,24,147,41*68
$BDGSV,5,5,19,175,35,317,41,179,26,160,41,180,33,185,41,,,,*6C
$GPGGA,000131.00,2813.3392287,N,11259.4845598,E,1,18,0.8,71.9230,M,-16.713,M,,*46
$GPGSV,1,1,00,,,,,,,,,,,,,,,,*79
$BDGSV,5,1,19,147,36,197,41,153,49,320,41,150,42,213,41,148,52,342,41*6A
$BDGSV,5,2,19,145,23,251,41,143,59,185,41,144,31,112,41,141,44,126,41*66
$BDGSV,5,3,19,142,45,231,41,156,20,165,41,178,55,006,42,159,63,273,41*67
$BDGSV,5,4,19,188,70,352,41,160,52,026,41,169,79,184,41,170,24,147,41*68
$BDGSV,5,5,19,175,35,317,41,179,26,160,41,180,33,185,41,,,,*6C
$GPGGA,000132.00,2813.3392302,N,11259.4845606,E,1,18,0.8,71.9094,M,-16.713,M,,*41
$GPGSV,1,1,00,,,,,,,,,,,,,,,,*79
$BDGSV,5,1,19,147,36,197,42,153,49,320,41,150,42,213,41,148,52,342,41*69
$BDGSV,5,2,19,145,23,251,41,143,59,185,41,144,31,112,41,141,44,126,41*66
$BDGSV,5,3,19,142,45,231,41,156,20,165,41,178,55,006,41,159,63,274,41*63
$BDGSV,5,4,19,188,70,352,42,160,52,026,41,169,79,184,41,170,24,147,42*68
$BDGSV,5,5,19,175,35,317,41,179,26,160,42,180,33,185,41,,,,*6F
$GPGGA,000133.00,2813.3392283,N,11259.4845582,E,1,18,0.8,71.9074,M,-16.713,M,,*49
$GPGSV,1,1,00,,,,,,,,,,,,,,,,*79
$BDGSV,5,1,19,147,36,197,41,153,49,320,41,150,42,213,41,148,51,342,41*69
$BDGSV,5,2,19,145,23,251,42,143,59,185,41,144,31,112,41,141,44,126,42*66
$BDGSV,5,3,19,142,45,231,41,156,20,165,41,178,55,006,41,159,63,274,41*63
$BDGSV,5,4,19,188,70,352,41,160,52,026,41,169,79,184,41,170,24,147,41*68
$BDGSV,5,5,19,175,35,317,41,179,26,160,41,180,33,185,41,,,,*6C
$GPGGA,000134.00,2813.3392268,N,11259.4845550,E,1,18,0.8,71.9054,M,-16.713,M,,*46
$GPGSV,1,1,00,,,,,,,,,,,,,,,,*79
$BDGSV,5,1,19,147,36,197,41,153,49,320,41,150,42,213,41,148,51,342,41*69
$BDGSV,5,2,19,145,23,251,41,143,59,185,41,144,31,112,41,141,44,126,41*66
$BDGSV,5,3,19,142,45,231,41,156,20,165,42,178,55,006,42,159,63,274,42*60
$BDGSV,5,4,19,188,70,352,42,160,52,026,41,169,79,184,41,170,24,147,41*6B
$BDGSV,5,5,19,175,35,317,41,179,26,160,41,180,33,185,42,,,,*6F
$GPGGA,000135.00,2813.3392264,N,11259.4845547,E,1,18,0.8,71.8991,M,-16.713,M,,*4C
$GPGSV,1,1,00,,,,,,,,,,,,,,,,*79
$BDGSV,5,1,19,147,36,197,41,153,49,320,41,150,42,213,41,148,51,342,41*69
$BDGSV,5,2,19,145,23,251,41,143,59,185,41,144,31,112,41,141,44,126,41*66
$BDGSV,5,3,19,142,45,231,42,156,20,165,42,178,55,006,42,159,63,274,41*60
$BDGSV,5,4,19,188,70,352,41,160,52,026,41,169,79,184,41,170,24,147,42*6B
$BDGSV,5,5,19,175,35,317,41,179,26,160,41,180,33,185,42,,,,*6F
$GPGGA,000136.00,2813.3392254,N,11259.4845556,E,1,18,0.8,71.8921,M,-16.713,M,,*47
$GPGSV,1,1,00,,,,,,,,,,,,,,,,*79
$BDGSV,5,1,19,147,36,197,42,153,49,320,41,150,42,213,41,148,51,342,41*6A
$BDGSV,5,2,19,145,23,251,41,143,59,185,41,144,31,112,41,141,44,126,41*66
$BDGSV,5,3,19,142,45,231,41,156,20,165,41,178,55,006,42,159,63,274,41*60
$BDGSV,5,4,19,188,70,352,41,160,52,026,42,169,79,184,42,170,24,147,41*68
$BDGSV,5,5,19,175,35,317,41,179,26,160,41,180,33,185,41,,,,*6C
$GPGGA,000137.00,2813.3392259,N,11259.4845577,E,1,18,0.8,71.8840,M,-16.713,M,,*4E
$GPGSV,1,1,00,,,,,,,,,,,,,,,,*79
$BDGSV,5,1,19,147,36,197,41,153,49,320,41,150,42,213,42,148,51,342,41*6A
$BDGSV,5,2,19,145,23,251,41,143,59,185,41,144,31,112,41,141,44,126,41*66
$BDGSV,5,3,19,142,45,231,41,156,20,165,41,178,55,006,41,159,63,274,41*63
$BDGSV,5,4,19,188,70,352,41,160,52,026,41,169,79,184,41,170,24,147,41*68
$BDGSV,5,5,19,175,35,317,41,179,26,160,41,180,33,185,41,,,,*6C
$GPGGA,000138.00,2813.3392255,N,11259.4845572,E,1,18,0.8,71.8816,M,-16.713,M,,*4B
$GPGSV,1,1,00,,,,,,,,,,,,,,,,*79
$BDGSV,5,1,19,147,36,197,41,153,49,320,41,150,42,213,41,148,51,342,41*69
$BDGSV,5,2,19,145,23,251,41,143,59,185,41,144,31,112,41,141,44,126,41*66
$BDGSV,5,3,19,142,45,231,41,156,20,165,41,178,55,006,41,159,63,274,41*63
$BDGSV,5,4,19,188,70,352,41,160,52,026,41,169,79,184,41,170,24,147,41*68
$BDGSV,5,5,19,175,35,317,41,179,26,160,41,180,33,185,41,,,,*6C
$GPGGA,000139.00,2813.3392260,N,11259.4845571,E,1,18,0.8,71.8736,M,-16.713,M,,*42
$GPGSV,1,1,00,,,,,,,,,,,,,,,,*79
$BDGSV,5,1,19,147,36,197,41,153,49,320,41,150,42,213,42,148,51,342,42*69
$BDGSV,5,2,19,145,23,251,41,143,59,185,41,144,31,112,41,141,44,126,42*65
$BDGSV,5,3,19,142,45,231,41,156,20,165,41,178,55,006,41,159,63,274,41*63
$BDGSV,5,4,19,188,70,352,41,160,52,026,42,169,79,184,42,170,24,147,41*68
$BDGSV,5,5,19,175,35,317,41,179,26,160,41,180,33,185,41,,,,*6C
$GPGGA,000140.00,2813.3392245,N,11259.4845538,E,1,18,0.8,71.8702,M,-16.713,M,,*41
$GPGSV,1,1,00,,,,,,,,,,,,,,,,*79
$BDGSV,5,1,19,147,36,197,41,153,49,320,41,150,42,213,41,148,51,342,41*69
$BDGSV,5,2,19,145,23,251,41,143,59,185,41,144,31,112,41,141,44,126,41*66
$BDGSV,5,3,19,142,45,231,41,156,20,165,41,178,55,006,41,159,63,274,41*63
$BDGSV,5,4,19,188,70,352,41,160,52,026,42,169,79,184,41,170,24,147,41*6B
$BDGSV,5,5,19,175,35,317,41,179,26,160,41,180,33,185,41,,,,*6C
$GPGGA,000141.00,2813.3392225,N,11259.4845503,E,1,18,0.8,71.8679,M,-16.713,M,,*43
$GPGSV,1,1,00,,,,,,,,,,,,,,,,*79
$BDGSV,5,1,19,147,36,197,41,153,49,320,41,150,42,213,41,148,51,342,41*69
$BDGSV,5,2,19,145,23,251,41,143,59,185,41,144,31,112,41,141,44,126,41*66
$BDGSV,5,3,19,142,45,231,41,156,20,165,41,178,55,006,41,159,63,274,41*63
$BDGSV,5,4,19,188,70,352,41,160,52,026,41,169,79,184,41,170,24,147,41*68
$BDGSV,5,5,19,175,35,317,41,179,26,160,41,180,33,185,41,,,,*6C
$GPGGA,000142.00,2813.3392227,N,11259.4845482,E,1,18,0.8,71.8590,M,-16.713,M,,*4E
$GPGSV,1,1,00,,,,,,,,,,,,,,,,*79
$BDGSV,5,1,19,147,36,197,41,153,49,320,40,150,42,213,41,148,51,342,41*68
$BDGSV,5,2,19,145,23,251,41,143,59,185,41,144,31,112,41,141,44,126,41*66
$BDGSV,5,3,19,142,45,231,41,156,20,165,41,178,55,006,41,159,63,274,41*63
$BDGSV,5,4,19,188,70,352,41,160,52,026,41,169,79,184,41,170,24,147,41*68
$BDGSV,5,5,19,175,35,317,41,179,26,160,41,180,33,185,41,,,,*6C
$GPGGA,000143.00,2813.3392225,N,11259.4845492,E,1,18,0.8,71.8498,M,-16.713,M,,*45
$GPGSV,1,1,00,,,,,,,,,,,,,,,,*79
$BDGSV,5,1,19,147,36,197,41,153,49,320,41,150,42,213,41,148,51,342,41*69
$BDGSV,5,2,19,145,23,251,41,143,59,185,41,144,31,112,41,141,44,126,41*66
$BDGSV,5,3,19,142,45,231,41,156,20,165,41,178,55,006,41,159,63,274,42*60
$BDGSV,5,4,19,188,70,352,41,160,52,026,41,169,79,184,41,170,24,147,41*68
$BDGSV,5,5,19,175,35,317,42,179,26,160,41,180,33,185,41,,,,*6F
$GPGGA,000144.00,2813.3392218,N,11259.4845496,E,1,18,0.8,71.8402,M,-16.713,M,,*4B
$GPGSV,1,1,00,,,,,,,,,,,,,,,,*79
$BDGSV,5,1,19,147,36,197,41,153,49,320,41,150,42,213,41,148,51,342,41*69
$BDGSV,5,2,19,145,23,251,42,143,59,185,41,144,31,112,41,141,44,126,41*65
$BDGSV,5,3,19,142,45,231,41,156,20,165,41,178,55,006,41,159,63,274,41*63
$BDGSV,5,4,19,188,70,352,41,160,52,026,41,169,79,184,41,170,24,147,41*68
$BDGSV,5,5,19,175,35,317,41,179,26,160,41,180,33,185,41,,,,*6C
$GPGGA,000145.00,2813.3392259,N,11259.4845541,E,1,19,0.8,71.8289,M,-16.713,M,,*40
$GPGSV,1,1,00,,,,,,,,,,,,,,,,*79
$BDGSV,5,1,19,147,36,197,41,153,49,320,41,150,42,213,41,148,51,342,41*69
$BDGSV,5,2,19,145,23,251,41,143,59,185,42,144,31,112,41,141,44,126,41*65
$BDGSV,5,3,19,142,45,231,41,156,20,165,41,178,55,006,41,159,63,274,41*63
$BDGSV,5,4,19,188,70,353,41,160,52,026,41,169,79,184,41,170,24,147,41*69
$BDGSV,5,5,19,175,35,317,41,179,26,160,41,180,33,185,41,,,,*6C
$GPGGA,000146.00,2813.3392285,N,11259.4845567,E,1,19,0.8,71.8240,M,-16.713,M,,*43
$GPGSV,1,1,00,,,,,,,,,,,,,,,,*79
$BDGSV,5,1,19,147,36,197,41,153,49,320,41,150,42,213,41,148,51,342,41*69
$BDGSV,5,2,19,145,23,251,41,143,59,185,41,144,31,112,41,141,44,126,41*66
$BDGSV,5,3,19,142,45,231,41,156,20,165,41,178,55,006,41,159,63,274,42*60
$BDGSV,5,4,19,188,70,353,41,160,52,026,41,169,79,184,42,170,24,147,42*69
$BDGSV,5,5,19,175,35,317,41,179,26,160,41,180,33,185,41,,,,*6C
$GPGGA,000147.00,2813.3392308,N,11259.4845604,E,1,19,0.8,71.8179,M,-16.713,M,,*49
$GPGSV,1,1,00,,,,,,,,,,,,,,,,*79
$BDGSV,5,1,19,147,36,197,41,153,49,320,41,150,42,213,41,148,51,342,41*69
$BDGSV,5,2,19,145,23,251,41,143,59,185,41,144,31,112,41,141,44,126,41*66
$BDGSV,5,3,19,142,45,231,41,156,20,165,41,178,55,006,41,159,63,274,41*63
$BDGSV,5,4,19,188,70,353,41,160,52,026,41,169,79,184,41,170,24,147,41*69
$BDGSV,5,5,19,175,35,317,41,179,26,160,41,180,33,185,41,,,,*6C
$GPGGA,000148.00,2813.3392304,N,11259.4845619,E,1,19,0.8,71.8120,M,-16.713,M,,*4A
$GPGSV,1,1,00,,,,,,,,,,,,,,,,*79
$BDGSV,5,1,19,147,36,197,42,153,49,320,41,150,42,213,41,148,51,342,41*6A
$BDGSV,5,2,19,145,23,251,41,143,59,185,41,144,31,112,41,141,44,126,41*66
$BDGSV,5,3,19,142,45,231,41,156,20,165,41,178,55,006,41,159,63,274,41*63
$BDGSV,5,4,19,188,70,353,41,160,52,026,41,169,79,184,41,170,24,147,42*6A
$BDGSV,5,5,19,175,35,317,41,179,26,160,42,180,33,185,41,,,,*6F
$GPGGA,000149.00,2813.3392321,N,11259.4845644,E,1,19,0.8,71.7963,M,-16.713,M,,*44
$GPGSV,1,1,00,,,,,,,,,,,,,,,,*79
$BDGSV,5,1,19,147,36,197,41,153,49,320,41,150,42,213,41,148,51,342,41*69
$BDGSV,5,2,19,145,23,251,41,143,59,185,41,144,31,112,41,141,44,126,41*66
$BDGSV,5,3,19,142,45,231,41,156,20,165,41,178,55,006,41,159,63,274,41*63
$BDGSV,5,4,19,188,70,353,41,160,52,026,41,169,79,184,41,170,24,147,41*69
$BDGSV,5,5,19,175,35,317,41,179,26,160,41,180,33,185,41,,,,*6C
$GPGGA,000150.00,2813.3392354,N,11259.4845669,E,1,19,0.8,71.7853,M,-16.713,M,,*43
$GPGSV,1,1,00,,,,,,,,,,,,,,,,*79
$BDGSV,5,1,19,147,36,197,41,153,49,320,40,150,42,213,41,148,51,342,41*68
$BDGSV,5,2,19,145,23,251,41,143,59,185,41,144,31,112,41,141,44,126,41*66
$BDGSV,5,3,19,142,45,231,41,156,20,165,41,178,55,006,41,159,63,274,42*60
$BDGSV,5,4,19,188,70,353,41,160,52,026,41,169,79,184,41,170,24,147,41*69
$BDGSV,5,5,19,175,35,317,41,179,26,160,41,180,33,185,41,,,,*6C
$GPGGA,000151.00,2813.3392371,N,11259.4845700,E,1,19,0.8,71.7759,M,-16.713,M,,*4E
$GPGSV,1,1,00,,,,,,,,,,,,,,,,*79
$BDGSV,5,1,19,147,36,197,41,153,49,320,41,150,42,213,41,148,51,342,41*69
$BDGSV,5,2,19,145,23,251,41,143,59,185,41,144,31,112,41,141,44,126,41*66
$BDGSV,5,3,19,142,45,231,41,156,20,165,41,178,55,006,41,159,63,274,41*63
$BDGSV,5,4,19,188,70,353,41,160,52,026,41,169,79,184,41,170,24,147,41*69
$BDGSV,5,5,19,175,35,317,41,179,26,160,41,180,33,185,41,,,,*6C
$GPGGA,000152.00,2813.3392367,N,11259.4845710,E,1,19,0.8,71.7677,M,-16.713,M,,*46
$GPGSV,1,1,00,,,,,,,,,,,,,,,,*79
$BDGSV,5,1,19,147,36,197,41,153,49,320,41,150,42,213,41,148,51,342,41*69
$BDGSV,5,2,19,145,23,251,41,143,59,185,41,144,31,112,41,141,44,126,41*66
$BDGSV,5,3,19,142,45,231,41,156,20,165,41,178,55,006,41,159,63,274,41*63
$BDGSV,5,4,19,188,70,353,41,160,52,026,41,169,79,184,41,170,24,147,41*69
$BDGSV,5,5,19,175,35,317,42,179,26,160,41,180,33,185,41,,,,*6F
$GPGGA,000153.00,2813.3392384,N,11259.4845741,E,1,19,0.8,71.7553,M,-16.713,M,,*4B
$GPGSV,1,1,00,,,,,,,,,,,,,,,,*79
$BDGSV,5,1,19,147,36,197,41,153,49,320,40,150,42,213,41,148,51,342,41*68
$BDGSV,5,2,19,145,23,251,41,143,59,185,41,144,31,112,41,141,44,126,41*66
$BDGSV,5,3,19,142,45,231,41,156,20,165,41,178,55,006,41,159,63,274,41*63
$BDGSV,5,4,19,188,70,353,41,160,52,026,41,169,79,184,41,170,24,147,41*69
$BDGSV,5,5,19,175,35,317,41,179,26,160,41,180,33,185,41,,,,*6C
$GPGGA,000154.00,2813.3392410,N,11259.4845770,E,1,19,0.8,71.7498,M,-16.713,M,,*42
$GPGSV,1,1,00,,,,,,,,,,,,,,,,*79
$BDGSV,5,1,19,147,36,197,42,153,49,320,41,150,42,213,41,148,51,342,41*6A
$BDGSV,5,2,19,145,23,251,41,143,59,185,41,144,31,112,41,141,44,126,41*66
$BDGSV,5,3,19,142,45,231,41,156,20,165,41,178,55,006,41,159,63,274,41*63
$BDGSV,5,4,19,188,70,353,41,160,52,026,42,169,79,184,41,170,24,147,41*6A
$BDGSV,5,5,19,175,35,317,41,179,26,160,41,180,33,185,41,,,,*6C
$GPGGA,000155.00,2813.3392425,N,11259.4845788,E,1,19,0.8,71.7468,M,-16.713,M,,*4D
$GPGSV,1,1,00,,,,,,,,,,,,,,,,*79
$BDGSV,5,1,19,147,36,197,41,153,49,320,41,150,42,213,41,148,51,342,41*69
$BDGSV,5,2,19,145,23,251,40,143,59,185,41,144,31,112,41,141,44,126,41*67
$BDGSV,5,3,19,142,45,231,41,156,20,165,41,178,55,006,41,159,63,274,41*63
$BDGSV,5,4,19,188,70,353,41,160,52,026,41,169,79,184,41,170,24,147,41*69
$BDGSV,5,5,19,175,35,317,41,179,26,160,41,180,33,185,41,,,,*6C
$GPGGA,000156.00,2813.3392456,N,11259.4845828,E,1,19,0.8,71.7364,M,-16.713,M,,*44
$GPGSV,1,1,00,,,,,,,,,,,,,,,,*79
$BDGSV,5,1,19,147,36,197,41,153,49,320,41,150,42,213,41,148,51,342,41*69
$BDGSV,5,2,19,145,23,251,41,143,59,185,41,144,31,112,41,141,44,126,41*66
$BDGSV,5,3,19,142,45,231,41,156,20,165,41,178,55,006,41,159,63,274,41*63
$BDGSV,5,4,19,188,70,353,41,160,52,026,41,169,79,184,41,170,24,147,41*69
$BDGSV,5,5,19,175,35,317,41,179,26,160,41,180,33,185,41,,,,*6C
$GPGGA,000157.00,2813.3392492,N,11259.4845866,E,1,19,0.8,71.7222,M,-16.713,M,,*44
$GPGSV,1,1,00,,,,,,,,,,,,,,,,*79
$BDGSV,5,1,19,147,36,197,41,153,49,320,41,150,42,213,41,148,51,342,41*69
$BDGSV,5,2,19,145,23,251,41,143,59,185,41,144,31,112,40,141,44,126,41*67
$BDGSV,5,3,19,142,45,231,41,156,20,165,41,178,55,006,41,159,63,274,41*63
$BDGSV,5,4,19,188,70,353,41,160,52,026,41,169,79,184,41,170,24,147,41*69
$BDGSV,5,5,19,175,35,317,41,179,26,160,41,180,33,185,41,,,,*6C
$GPGGA,000158.00,2813.3392514,N,11259.4845880,E,1,19,0.8,71.7168,M,-16.713,M,,*41
$GPGSV,1,1,00,,,,,,,,,,,,,,,,*79
$BDGSV,5,1,19,147,36,197,41,153,49,320,41,150,42,213,41,148,51,342,41*69
$BDGSV,5,2,19,145,23,251,41,143,59,185,41,144,31,112,41,141,44,126,41*66
$BDGSV,5,3,19,142,45,231,41,156,20,165,41,178,55,006,41,159,63,274,41*63
$BDGSV,5,4,19,188,70,353,41,160,52,026,41,169,79,184,41,170,24,147,41*69
$BDGSV,5,5,19,175,35,317,41,179,26,160,41,180,33,185,41,,,,*6C
$GPGGA,000159.00,2813.3392519,N,11259.4845887,E,1,19,0.8,71.7132,M,-16.713,M,,*45
$GPGSV,1,1,00,,,,,,,,,,,,,,,,*79
$BDGSV,5,1,19,147,36,197,41,153,49,320,41,150,42,213,41,148,51,342,41*69
$BDGSV,5,2,19,145,23,251,41,143,59,185,41,144,31,112,41,141,44,126,41*66
$BDGSV,5,3,19,142,45,231,41,156,20,165,41,178,55,006,40,159,63,274,41*62
$BDGSV,5,4,19,188,70,353,41,160,52,026,41,169,79,184,41,170,24,147,41*69
$BDGSV,5,5,19,175,35,317,41,179,26,160,41,180,33,185,41,,,,*6C
$GPGGA,000200.00,2813.3392538,N,11259.4845909,E,1,19,0.8,71.7031,M,-16.713,M,,*4C
$GPGSV,1,1,00,,,,,,,,,,,,,,,,*79
$BDGSV,5,1,19,147,36,197,41,153,49,320,41,150,42,213,41,148,51,342,41*69
$BDGSV,5,2,19,145,23,251,41,143,59,185,41,144,31,112,41,141,44,126,41*66
$BDGSV,5,3,19,142,45,231,41,156,20,165,41,178,55,006,41,159,63,274,41*63
$BDGSV,5,4,19,188,70,353,41,160,52,026,41,169,79,184,41,170,24,147,41*69
$BDGSV,5,5,19,175,35,317,41,179,26,160,41,180,33,185,41,,,,*6C
$GPGGA,000201.00,2813.3392561,N,11259.4845940,E,1,19,0.8,71.6927,M,-16.713,M,,*43
$GPGSV,1,1,00,,,,,,,,,,,,,,,,*79
$BDGSV,5,1,19,147,36,197,42,153,49,320,41,150,42,213,41,148,51,342,41*6A
$BDGSV,5,2,19,145,23,251,41,143,59,185,41,144,31,112,41,141,44,126,41*66
$BDGSV,5,3,19,142,45,231,41,156,20,165,41,178,55,006,41,159,63,274,41*63
$BDGSV,5,4,19,188,70,353,41,160,52,026,41,169,79,184,41,170,24,147,41*69
$BDGSV,5,5,19,175,35,317,41,179,26,160,41,180,33,185,41,,,,*6C
$GPGGA,000202.00,2813.3392587,N,11259.4845956,E,1,19,0.8,71.6890,M,-16.713,M,,*42
$GPGSV,1,1,00,,,,,,,,,,,,,,,,*79
$BDGSV,5,1,19,147,36,197,41,153,49,320,41,150,42,213,41,148,51,342,41*69
$BDGSV,5,2,19,145,23,251,41,143,59,185,41,144,31,112,41,141,44,126,41*66
$BDGSV,5,3,19,142,45,231,41,156,20,165,41,178,55,006,41,159,63,274,41*63
$BDGSV,5,4,19,188,70,353,41,160,52,026,41,169,79,184,41,170,24,147,41*69
$BDGSV,5,5,19,175,35,317,41,179,26,160,41,180,33,185,41,,,,*6C
$GPGGA,000203.00,2813.3392605,N,11259.4845980,E,1,19,0.8,71.6887,M,-16.713,M,,*47
$GPGSV,1,1,00,,,,,,,,,,,,,,,,*79
$BDGSV,5,1,19,147,36,197,41,153,49,320,41,150,42,213,41,148,51,342,41*69
$BDGSV,5,2,19,145,23,251,41,143,59,185,41,144,31,112,41,141,44,126,41*66
$BDGSV,5,3,19,142,45,231,41,156,20,165,41,178,55,006,41,159,63,274,41*63
$BDGSV,5,4,19,188,70,353,41,160,52,026,41,169,79,184,41,170,24,147,41*69
$BDGSV,5,5,19,175,35,317,41,179,26,160,41,180,33,185,41,,,,*6C
$GPGGA,000204.00,2813.3392623,N,11259.4845997,E,1,19,0.8,71.6823,M,-16.713,M,,*4C
$GPGSV,1,1,00,,,,,,,,,,,,,,,,*79
$BDGSV,5,1,19,147,36,197,41,153,49,320,41,150,42,213,41,148,51,342,41*69
$BDGSV,5,2,19,145,23,251,41,143,59,185,41,144,31,112,41,141,44,126,41*66
$BDGSV,5,3,19,142,45,231,41,156,20,165,41,178,55,006,41,159,63,274,41*63
$BDGSV,5,4,19,188,70,353,41,160,52,026,41,169,79,184,41,170,24,147,42*6A
$BDGSV,5,5,19,175,35,317,41,179,26,160,41,180,33,185,41,,,,*6C
$GPGGA,000205.00,2813.3392645,N,11259.4846008,E,1,19,0.8,71.6753,M,-16.713,M,,*49
$GPGSV,1,1,00,,,,,,,,,,,,,,,,*79
$BDGSV,5,1,19,147,36,197,41,153,49,320,41,150,42,213,41,148,51,342,41*69
$BDGSV,5,2,19,145,23,251,41,143,59,185,41,144,31,112,41,141,44,126,41*66
$BDGSV,5,3,19,142,45,231,41,156,20,165,41,178,55,006,41,159,63,274,41*63
$BDGSV,5,4,19,188,70,353,41,160,52,026,41,169,79,184,41,170,24,147,41*69
$BDGSV,5,5,19,175,35,317,41,179,26,160,41,180,33,185,41,,,,*6C
$GPGGA,000206.00,2813.3392673,N,11259.4846028,E,1,19,0.8,71.6631,M,-16.713,M,,*48
$GPGSV,1,1,00,,,,,,,,,,,,,,,,*79
$BDGSV,5,1,19,147,36,197,41,153,49,320,41,150,42,213,41,148,51,342,41*69
$BDGSV,5,2,19,145,23,251,41,143,59,185,41,144,31,112,41,141,44,126,41*66
$BDGSV,5,3,19,142,45,231,41,156,20,165,41,178,55,006,41,159,63,274,41*63
$BDGSV,5,4,19,188,70,353,41,160,52,026,41,169,79,184,41,170,24,147,41*69
$BDGSV,5,5,19,175,35,317,41,179,26,160,41,180,32,185,41,,,,*6D
$GPGGA,000207.00,2813.3392696,N,11259.4846054,E,1,19,0.8,71.6529,M,-16.713,M,,*43
$GPGSV,1,1,00,,,,,,,,,,,,,,,,*79
$BDGSV,5,1,19,147,36,197,41,153,49,320,41,150,42,213,41,148,51,342,41*69
$BDGSV,5,2,19,145,23,251,41,143,59,185,41,144,31,112,41,141,44,126,41*66
$BDGSV,5,3,19,142,45,231,41,156,20,165,41,178,55,006,41,159,63,274,41*63
$BDGSV,5,4,19,188,70,353,41,160,52,026,41,169,79,184,41,170,24,147,41*69
$BDGSV,5,5,19,175,35,317,41,179,26,160,41,180,32,185,41,,,,*6D
$GPGGA,000208.00,2813.3392726,N,11259.4846087,E,1,19,0.8,71.6414,M,-16.713,M,,*47
$GPGSV,1,1,00,,,,,,,,,,,,,,,,*79
$BDGSV,5,1,19,147,36,197,41,153,49,320,41,150,42,213,41,148,51,342,41*69
$BDGSV,5,2,19,145,23,251,41,143,59,185,41,144,31,112,41,141,44,126,41*66
$BDGSV,5,3,19,142,45,231,41,156,20,165,41,178,55,006,41,159,63,274,41*63
$BDGSV,5,4,19,188,70,353,41,160,52,026,41,169,79,184,41,170,24,147,41*69
$BDGSV,5,5,19,175,35,317,41,179,26,160,41,180,32,185,41,,,,*6D
$GPGGA,000209.00,2813.3392742,N,11259.4846119,E,1,19,0.8,71.6349,M,-16.713,M,,*4D
$GPGSV,1,1,00,,,,,,,,,,,,,,,,*79
$BDGSV,5,1,19,147,36,197,41,153,49,320,41,150,42,213,41,148,51,342,41*69
$BDGSV,5,2,19,145,23,251,41,143,59,185,41,144,31,112,41,141,44,126,41*66
$BDGSV,5,3,19,142,45,231,41,156,20,165,41,178,55,006,41,159,63,274,41*63
$BDGSV,5,4,19,188,70,353,41,160,52,026,41,169,79,184,41,170,24,147,41*69
$BDGSV,5,5,19,175,35,317,41,179,26,160,41,180,32,185,41,,,,*6D
$GPGGA,000210.00,2813.3392760,N,11259.4846150,E,1,19,0.8,71.6285,M,-16.713,M,,*49
$GPGSV,1,1,00,,,,,,,,,,,,,,,,*79
$BDGSV,5,1,19,147,36,197,41,153,49,320,40,150,42,213,41,148,51,342,41*68
$BDGSV,5,2,19,145,23,251,41,143,59,185,41,144,31,112,41,141,44,126,41*66
$BDGSV,5,3,19,142,45,231,41,156,20,165,41,178,55,006,41,159,63,274,41*63
$BDGSV,5,4,19,188,70,353,41,160,52,026,41,169,79,184,41,170,24,147,41*69
$BDGSV,5,5,19,175,35,317,41,179,26,160,41,180,32,185,41,,,,*6D
$GPGGA,000211.00,2813.3392772,N,11259.4846172,E,1,19,0.8,71.6201,M,-16.713,M,,*47
$GPGSV,1,1,00,,,,,,,,,,,,,,,,*79
$BDGSV,5,1,19,147,36,197,41,153,49,320,41,150,42,213,41,148,51,342,41*69
$BDGSV,5,2,19,145,23,251,41,143,59,185,41,144,31,112,41,141,44,126,41*66
$BDGSV,5,3,19,142,45,231,41,156,20,165,41,178,55,006,41,159,63,274,41*63
$BDGSV,5,4,19,188,70,353,41,160,52,026,41,169,79,184,41,170,24,147,41*69
$BDGSV,5,5,19,175,35,317,41,179,26,160,41,180,32,185,41,,,,*6D
$GPGGA,000212.00,2813.3392783,N,11259.4846185,E,1,19,0.8,71.6195,M,-16.713,M,,*4C
$GPGSV,1,1,00,,,,,,,,,,,,,,,,*79
$BDGSV,5,1,19,147,36,197,41,153,49,320,40,150,42,213,41,148,51,342,41*68
$BDGSV,5,2,19,145,23,251,41,143,59,185,41,144,31,112,41,141,44,126,41*66
$BDGSV,5,3,19,142,45,231,41,156,20,165,41,178,55,006,41,159,63,274,41*63
$BDGSV,5,4,19,188,70,353,41,160,52,026,41,169,79,184,41,170,24,147,41*69
$BDGSV,5,5,19,175,35,317,41,179,26,160,41,180,32,185,41,,,,*6D
$GPGGA,000213.00,2813.3392798,N,11259.4846202,E,1,19,0.8,71.6190,M,-16.713,M,,*4E
$GPGSV,1,1,00,,,,,,,,,,,,,,,,*79
$BDGSV,5,1,19,147,36,197,41,153,49,320,41,150,42,213,41,148,51,342,41*69
$BDGSV,5,2,19,145,23,251,41,143,59,185,41,144,31,112,41,141,44,126,41*66
$BDGSV,5,3,19,142,45,231,41,156,20,165,41,178,55,006,41,159,63,274,41*63
$BDGSV,5,4,19,188,70,353,41,160,52,026,41,169,79,184,41,170,24,147,41*69
$BDGSV,5,5,19,175,35,317,41,179,26,160,41,180,32,185,41,,,,*6D
$GPGGA,000214.00,2813.3392819,N,11259.4846216,E,1,19,0.8,71.6133,M,-16.713,M,,*43
$GPGSV,1,1,00,,,,,,,,,,,,,,,,*79
$BDGSV,5,1,19,147,36,197,41,153,49,320,41,150,42,213,41,148,51,342,41*69
$BDGSV,5,2,19,145,23,251,41,143,59,185,41,144,31,112,41,141,44,126,41*66
$BDGSV,5,3,19,142,45,231,41,156,20,165,41,178,55,006,41,159,63,274,41*63
$BDGSV,5,4,19,188,70,353,41,160,52,026,41,169,79,184,41,170,24,147,41*69
$BDGSV,5,5,19,175,35,317,41,179,26,160,41,180,32,185,41,,,,*6D
$GPGGA,000215.00,2813.3392829,N,11259.4846232,E,1,19,0.8,71.6012,M,-16.713,M,,*45
$GPGSV,1,1,00,,,,,,,,,,,,,,,,*79
$BDGSV,5,1,19,147,36,197,41,153,49,320,41,150,42,213,41,148,51,342,41*69
$BDGSV,5,2,19,145,23,251,41,143,59,185,42,144,31,112,41,141,44,126,41*65
$BDGSV,5,3,19,142,45,231,41,156,20,165,42,178,55,006,41,159,63,274,41*60
$BDGSV,5,4,19,188,70,353,41,160,52,026,41,169,79,184,41,170,24,147,41*69
$BDGSV,5,5,19,175,35,317,41,179,26,160,41,180,32,185,41,,,,*6D
$GPGGA,000216.00,2813.3392833,N,11259.4846253,E,1,19,0.8,71.5951,M,-16.713,M,,*47
$GPGSV,1,1,00,,,,,,,,,,,,,,,,*79
$BDGSV,5,1,19,147,36,197,41,153,49,320,41,150,42,213,41,148,51,342,41*69
$BDGSV,5,2,19,145,23,251,41,143,59,185,41,144,31,112,41,141,44,126,41*66
$BDGSV,5,3,19,142,45,231,41,156,20,165,41,178,55,006,42,159,63,274,41*60
$BDGSV,5,4,19,188,70,353,41,160,52,026,41,169,79,184,41,170,24,147,41*69
$BDGSV,5,5,19,175,35,317,41,179,26,160,41,180,32,185,41,,,,*6D
$GPGGA,000217.00,2813.3392855,N,11259.4846283,E,1,19,0.8,71.5914,M,-16.713,M,,*4A
$GPGSV,1,1,00,,,,,,,,,,,,,,,,*79
$BDGSV,5,1,19,147,36,197,41,153,49,320,41,150,42,213,41,148,51,342,41*69
$BDGSV,5,2,19,145,23,251,41,143,59,185,41,144,31,112,41,141,44,126,41*66
$BDGSV,5,3,19,142,45,231,41,156,20,165,41,178,55,006,41,159,63,274,41*63
$BDGSV,5,4,19,188,70,353,41,160,52,026,41,169,79,184,41,170,24,147,41*69
$BDGSV,5,5,19,175,35,317,41,179,26,160,41,180,32,185,41,,,,*6D
$GPGGA,000218.00,2813.3392866,N,11259.4846295,E,1,19,0.8,71.5880,M,-16.713,M,,*4E
$GPGSV,1,1,00,,,,,,,,,,,,,,,,*79
$BDGSV,5,1,19,147,36,197,41,153,49,320,41,150,42,213,41,148,51,342,41*69
$BDGSV,5,2,19,145,23,251,41,143,59,185,41,144,31,112,41,141,44,126,41*66
$BDGSV,5,3,19,142,45,231,41,156,20,165,41,178,55,006,41,159,63,274,41*63
$BDGSV,5,4,19,188,70,353,41,160,52,026,41,169,79,184,41,170,24,147,41*69
$BDGSV,5,5,19,175,35,317,41,179,26,160,41,180,32,185,41,,,,*6D
$GPGGA,000219.00,2813.3392889,N,11259.4846302,E,1,19,0.8,71.5829,M,-16.713,M,,*42
$GPGSV,1,1,00,,,,,,,,,,,,,,,,*79
$BDGSV,5,1,19,147,36,197,41,153,49,320,41,150,42,213,41,148,51,342,41*69
$BDGSV,5,2,19,145,23,251,41,143,59,185,41,144,31,112,41,141,44,126,41*66
$BDGSV,5,3,19,142,45,231,41,156,20,165,41,178,55,006,41,159,63,274,41*63
$BDGSV,5,4,19,188,70,353,41,160,52,026,41,169,79,184,41,170,24,147,41*69
$BDGSV,5,5,19,175,35,317,41,179,26,160,41,180,32,185,41,,,,*6D
$GPGGA,000220.00,2813.3392908,N,11259.4846334,E,1,19,0.8,71.5734,M,-16.713,M,,*46
$GPGSV,1,1,00,,,,,,,,,,,,,,,,*79
$BDGSV,5,1,19,147,36,197,41,153,49,320,41,150,42,213,41,148,51,342,41*69
$BDGSV,5,2,19,145,23,251,41,143,59,185,41,144,31,112,42,141,44,126,41*65
$BDGSV,5,3,19,142,45,231,41,156,20,165,42,178,55,006,41,159,63,274,41*60
$BDGSV,5,4,19,188,70,353,41,160,52,026,41,169,79,184,41,170,24,147,41*69
$BDGSV,5,5,19,175,35,317,41,179,26,160,41,180,32,185,41,,,,*6D
$GPGGA,000221.00,2813.3392930,N,11259.4846361,E,1,19,0.8,71.5668,M,-16.713,M,,*44
$GPGSV,1,1,00,,,,,,,,,,,,,,,,*79
$BDGSV,5,1,19,147,36,197,41,153,49,320,41,150,42,213,41,148,51,342,41*69
$BDGSV,5,2,19,145,23,251,41,143,59,185,41,144,31,112,42,141,44,126,41*65
$BDGSV,5,3,19,142,45,231,41,156,20,165,41,178,55,006,41,159,63,274,41*63
$BDGSV,5,4,19,188,70,353,41,160,52,026,41,169,79,184,41,170,24,147,41*69
$BDGSV,5,5,19,175,35,317,41,179,26,160,41,180,32,185,41,,,,*6D
$GPGGA,000222.00,2813.3392944,N,11259.4846377,E,1,19,0.8,71.5712,M,-16.713,M,,*4F
$GPGSV,1,1,00,,,,,,,,,,,,,,,,*79
$BDGSV,5,1,19,147,36,197,41,153,49,320,41,150,42,213,41,148,51,342,41*69
$BDGSV,5,2,19,145,23,251,41,143,59,185,41,144,31,112,41,141,44,126,41*66
$BDGSV,5,3,19,142,45,231,41,156,20,165,41,178,55,006,41,159,63,274,41*63
$BDGSV,5,4,19,188,70,353,41,160,52,026,41,169,79,184,41,170,24,147,41*69
$BDGSV,5,5,19,175,35,317,41,179,26,160,41,180,32,185,41,,,,*6D
$GPGGA,000223.00,2813.3392962,N,11259.4846403,E,1,19,0.8,71.5710,M,-16.713,M,,*4C
$GPGSV,1,1,00,,,,,,,,,,,,,,,,*79
$BDGSV,5,1,19,147,36,197,41,153,49,320,40,150,42,213,41,148,51,342,41*68
$BDGSV,5,2,19,145,23,251,41,143,59,185,41,144,31,112,41,141,44,126,41*66
$BDGSV,5,3,19,142,45,231,41,156,20,165,41,178,55,006,41,159,63,274,41*63
$BDGSV,5,4,19,188,70,353,41,160,52,026,41,169,79,184,41,170,24,147,41*69
$BDGSV,5,5,19,175,35,317,41,179,26,160,41,180,32,185,41,,,,*6D
$GPGGA,000224.00,2813.3392992,N,11259.4846428,E,1,19,0.8,71.5591,M,-16.713,M,,*46
$GPGSV,1,1,00,,,,,,,,,,,,,,,,*79
$BDGSV,5,1,19,147,36,197,41,153,49,320,41,150,42,213,41,148,51,342,41*69
$BDGSV,5,2,19,145,23,251,41,143,59,185,41,144,31,112,41,141,44,126,41*66
$BDGSV,5,3,19,142,45,231,41,156,20,165,41,178,55,006,41,159,63,274,41*63
$BDGSV,5,4,19,188,70,353,41,160,52,026,42,169,79,184,41,170,24,147,41*6A
$BDGSV,5,5,19,175,35,317,41,179,26,160,41,180,32,185,41,,,,*6D
$GPGGA,000225.00,2813.3393011,N,11259.4846441,E,1,19,0.8,71.5472,M,-16.713,M,,*47
$GPGSV,1,1,00,,,,,,,,,,,,,,,,*79
$BDGSV,5,1,19,147,36,197,41,153,49,320,40,150,42,213,41,148,51,342,42*6B
$BDGSV,5,2,19,145,23,251,41,143,59,185,41,144,31,112,41,141,44,126,41*66
$BDGSV,5,3,19,142,45,231,41,156,20,165,41,178,55,006,41,159,63,274,41*63
$BDGSV,5,4,19,188,70,353,41,160,52,026,41,169,79,184,41,170,24,147,41*69
$BDGSV,5,5,19,175,35,317,41,179,26,160,41,180,32,185,42,,,,*6E
$GPGGA,000226.00,2813.3393027,N,11259.4846466,E,1,19,0.8,71.5325,M,-16.713,M,,*41
$GPGSV,1,1,00,,,,,,,,,,,,,,,,*79
$BDGSV,5,1,19,147,36,197,41,153,49,320,41,150,42,213,41,148,51,342,41*69
$BDGSV,5,2,19,145,23,251,41,143,59,185,41,144,31,112,41,141,44,126,41*66
$BDGSV,5,3,19,142,45,231,41,156,20,165,41,178,55,006,41,159,63,274,41*63
$BDGSV,5,4,19,188,70,353,41,160,52,026,41,169,79,184,41,170,24,147,41*69
$BDGSV,5,5,19,175,35,317,41,179,26,160,41,180,32,185,41,,,,*6D
$GPGGA,000227.00,2813.3393048,N,11259.4846482,E,1,19,0.8,71.5261,M,-16.713,M,,*42
$GPGSV,1,1,00,,,,,,,,,,,,,,,,*79
$BDGSV,5,1,19,147,36,197,41,153,49,320,41,150,42,213,41,148,51,342,41*69
$BDGSV,5,2,19,145,23,251,41,143,59,185,41,144,31,112,41,141,44,126,41*66
$BDGSV,5,3,19,142,45,231,41,156,20,165,41,178,55,006,41,159,63,274,41*63
$BDGSV,5,4,19,188,70,353,41,160,52,026,41,169,79,184,41,170,24,147,41*69
$BDGSV,5,5,19,175,35,317,41,179,26,160,41,180,32,185,41,,,,*6D
$GPGGA,000228.00,2813.3393064,N,11259.4846494,E,1,19,0.8,71.5215,M,-16.713,M,,*47
$GPGSV,1,1,00,,,,,,,,,,,,,,,,*79
$BDGSV,5,1,19,147,36,197,41,153,49,320,41,150,42,213,41,148,51,342,41*69
$BDGSV,5,2,19,145,23,251,41,143,59,185,41,144,31,112,41,141,44,126,41*66
$BDGSV,5,3,19,142,45,231,41,156,20,165,41,178,55,006,41,159,63,274,41*63
$BDGSV,5,4,19,188,70,353,41,160,52,026,41,169,79,184,41,170,24,147,41*69
$BDGSV,5,5,19,175,35,317,41,179,26,160,41,180,32,185,41,,,,*6D
$GPGGA,000229.00,2813.3393083,N,11259.4846523,E,1,19,0.8,71.5144,M,-16.713,M,,*45
$GPGSV,1,1,00,,,,,,,,,,,,,,,,*79
$BDGSV,5,1,19,147,36,197,41,153,49,320,41,150,42,213,41,148,51,342,41*69
$BDGSV,5,2,19,145,23,251,41,143,59,185,41,144,31,112,41,141,44,126,41*66
$BDGSV,5,3,19,142,45,231,41,156,20,165,41,178,55,006,41,159,63,274,41*63
$BDGSV,5,4,19,188,70,353,41,160,52,026,41,169,79,184,41,170,24,147,41*69
$BDGSV,5,5,19,175,35,317,42,179,26,160,41,180,32,185,41,,,,*6E
$GPGGA,000230.00,2813.3393104,N,11259.4846564,E,1,19,0.8,71.5039,M,-16.713,M,,*4B
$GPGSV,1,1,00,,,,,,,,,,,,,,,,*79
$BDGSV,5,1,19,147,36,197,41,153,49,320,41,150,42,213,41,148,51,342,41*69
$BDGSV,5,2,19,145,23,251,41,143,59,185,41,144,31,112,41,141,44,126,41*66
$BDGSV,5,3,19,142,45,231,42,156,20,165,41,178,55,006,41,159,63,274,41*60
$BDGSV,5,4,19,188,70,353,41,160,52,026,42,169,79,184,41,170,24,147,41*6A
$BDGSV,5,5,19,175,35,317,41,179,26,160,41,180,32,185,41,,,,*6D
$GPGGA,000231.00,2813.3393128,N,11259.4846575,E,1,19,0.8,71.4962,M,-16.713,M,,*42
$GPGSV,1,1,00,,,,,,,,,,,,,,,,*79
$BDGSV,5,1,19,147,36,197,41,153,49,320,41,150,42,213,41,148,51,342,41*69
$BDGSV,5,2,19,145,23,251,41,143,59,185,41,144,31,112,41,141,44,126,41*66
$BDGSV,5,3,19,142,45,231,41,156,20,165,41,178,55,006,41,159,63,274,41*63
$BDGSV,5,4,19,188,70,353,41,160,52,026,41,169,79,184,41,170,24,147,41*69
$BDGSV,5,5,19,175,35,317,41,179,26,160,41,180,32,185,41,,,,*6D
$GPGGA,000232.00,2813.3393143,N,11259.4846591,E,1,19,0.8,71.4944,M,-16.713,M,,*42
$GPGSV,1,1,00,,,,,,,,,,,,,,,,*79
$BDGSV,5,1,19,147,36,197,41,153,49,320,41,150,42,213,41,148,51,342,41*69
$BDGSV,5,2,19,145,23,251,41,143,59,185,41,144,31,112,41,141,44,126,41*66
$BDGSV,5,3,19,142,45,231,41,156,20,165,41,178,55,006,41,159,63,274,41*63
$BDGSV,5,4,19,188,70,353,41,160,52,026,41,169,78,184,41,170,24,147,41*68
$BDGSV,5,5,19,175,35,317,42,179,26,160,41,180,32,185,41,,,,*6E
$GPGGA,000233.00,2813.3393163,N,11259.4846607,E,1,19,0.8,71.4861,M,-16.713,M,,*4B
$GPGSV,1,1,00,,,,,,,,,,,,,,,,*79
$BDGSV,5,1,19,147,36,197,41,153,49,320,42,150,42,213,41,148,51,342,42*69
$BDGSV,5,2,19,145,23,251,42,143,59,185,41,144,31,112,42,141,44,126,41*66
$BDGSV,5,3,19,142,45,231,42,156,20,165,41,178,55,006,41,159,63,275,42*62
$BDGSV,5,4,19,188,70,353,41,160,52,026,41,169,78,184,41,170,24,147,41*68
$BDGSV,5,5,19,175,35,317,41,179,26,160,42,180,32,185,42,,,,*6D
$GPGGA,000234.00,2813.3393167,N,11259.4846631,E,1,19,0.8,71.4774,M,-16.713,M,,*46
$GPGSV,1,1,00,,,,,,,,,,,,,,,,*79
$BDGSV,5,1,19,147,36,197,41,153,49,320,41,150,42,213,41,148,51,342,41*69
$BDGSV,5,2,19,145,23,251,42,143,59,185,41,144,31,112,42,141,44,126,41*66
$BDGSV,5,3,19,142,45,231,41,156,20,165,41,178,55,006,42,159,63,275,42*62
$BDGSV,5,4,19,188,70,353,41,160,52,026,41,169,78,184,42,170,24,147,41*6B
$BDGSV,5,5,19,175,35,317,41,179,26,160,41,180,32,185,42,,,,*6E
$GPGGA,000235.00,2813.3393189,N,11259.4846650,E,1,19,0.8,71.4688,M,-16.713,M,,*42
$GPGSV,1,1,00,,,,,,,,,,,,,,,,*79
$BDGSV,5,1,19,147,36,197,41,153,49,320,41,150,42,213,41,148,51,342,41*69
$BDGSV,5,2,19,145,23,251,41,143,59,185,42,144,31,112,41,141,44,126,41*65
$BDGSV,5,3,19,142,45,231,42,156,20,165,41,178,55,006,41,159,63,275,41*61
$BDGSV,5,4,19,188,70,353,41,160,52,026,41,169,78,184,41,170,24,147,41*68
$BDGSV,5,5,19,175,35,317,41,179,26,160,41,180,32,185,41,,,,*6D
$GPGGA,000236.00,2813.3393210,N,11259.4846652,E,1,19,0.8,71.4658,M,-16.713,M,,*4D
$GPGSV,1,1,00,,,,,,,,,,,,,,,,*79
$BDGSV,5,1,19,147,36,197,41,153,49,320,41,150,42,213,41,148,51,342,41*69
$BDGSV,5,2,19,145,23,251,42,143,59,185,42,144,31,112,41,141,44,126,41*66
$BDGSV,5,3,19,142,45,231,42,156,20,165,41,178,55,006,41,159,63,275,41*61
$BDGSV,5,4,19,188,70,353,41,160,52,026,41,169,78,184,41,170,24,147,41*68
$BDGSV,5,5,19,175,35,317,41,179,26,160,41,180,32,185,41,,,,*6D
$GPGGA,000237.00,2813.3393236,N,11259.4846673,E,1,19,0.8,71.4553,M,-16.713,M,,*43
$GPGSV,1,1,00,,,,,,,,,,,,,,,,*79
$BDGSV,5,1,19,147,36,197,41,153,49,320,41,150,42,213,41,148,51,342,41*69
$BDGSV,5,2,19,145,23,251,41,143,59,185,41,144,31,112,41,141,44,126,41*66
$BDGSV,5,3,19,142,45,231,41,156,20,165,41,178,55,006,41,159,63,275,41*62
$BDGSV,5,4,19,188,70,353,41,160,52,026,41,169,78,184,41,170,24,147,41*68
$BDGSV,5,5,19,175,35,317,41,179,26,160,41,180,32,185,41,,,,*6D
$GPGGA,000238.00,2813.3393248,N,11259.4846704,E,1,19,0.8,71.4468,M,-16.713,M,,*4D
$GPGSV,1,1,00,,,,,,,,,,,,,,,,*79
$BDGSV,5,1,19,147,36,197,41,153,49,320,41,150,42,213,41,148,51,342,41*69
$BDGSV,5,2,19,145,23,251,41,143,59,185,41,144,31,112,41,141,44,126,41*66
$BDGSV,5,3,19,142,45,231,41,156,20,165,41,178,55,006,41,159,63,275,41*62
$BDGSV,5,4,19,188,70,353,41,160,52,026,41,169,78,184,41,170,24,147,41*68
$BDGSV,5,5,19,175,35,317,41,179,27,160,41,180,32,185,41,,,,*6C
$GPGGA,000239.00,2813.3393257,N,11259.4846718,E,1,19,0.8,71.4433,M,-16.713,M,,*41
$GPGSV,1,1,00,,,,,,,,,,,,,,,,*79
$BDGSV,5,1,19,147,36,197,41,153,49,320,41,150,42,213,41,148,51,342,41*69
$BDGSV,5,2,19,145,23,251,41,143,59,185,41,144,31,112,41,141,44,126,41*66
$BDGSV,5,3,19,142,45,231,41,156,20,165,41,178,55,006,41,159,63,275,41*62
$BDGSV,5,4,19,188,70,353,41,160,52,026,41,169,78,184,41,170,24,147,41*68
$BDGSV,5,5,19,175,35,317,41,179,27,160,41,180,32,185,41,,,,*6C
$GPGGA,000240.00,2813.3393265,N,11259.4846743,E,1,19,0.8,71.4475,M,-16.713,M,,*42
$GPGSV,1,1,00,,,,,,,,,,,,,,,,*79
$BDGSV,5,1,19,147,36,197,41,153,49,320,41,150,42,213,41,148,51,342,41*69
$BDGSV,5,2,19,145,23,251,41,143,59,185,41,144,31,112,41,141,44,126,41*66
$BDGSV,5,3,19,142,45,231,41,156,20,165,41,178,55,006,41,159,63,275,41*62
$BDGSV,5,4,19,188,70,353,41,160,52,026,41,169,78,183,41,170,24,147,41*6F
$BDGSV,5,5,19,175,35,317,41,179,27,160,41,180,32,185,41,,,,*6C
$GPGGA,000241.00,2813.3393279,N,11259.4846766,E,1,19,0.8,71.4452,M,-16.713,M,,*4C
$GPGSV,1,1,00,,,,,,,,,,,,,,,,*79
$BDGSV,5,1,19,147,36,197,41,153,49,320,41,150,42,213,41,148,51,342,41*69
$BDGSV,5,2,19,145,23,251,41,143,59,185,41,144,31,112,41,141,44,126,41*66
$BDGSV,5,3,19,142,45,231,41,156,20,165,41,178,55,006,41,159,63,275,41*62
$BDGSV,5,4,19,188,70,353,42,160,52,026,41,169,78,183,41,170,24,147,41*6C
$BDGSV,5,5,19,175,35,317,41,179,27,160,41,180,32,185,41,,,,*6C
$GPGGA,000242.00,2813.3393295,N,11259.4846787,E,1,19,0.8,71.4352,M,-16.713,M,,*45
$GPGSV,1,1,00,,,,,,,,,,,,,,,,*79
$BDGSV,5,1,19,147,36,197,41,153,49,320,41,150,42,213,41,148,51,342,41*69
$BDGSV,5,2,19,145,23,251,41,143,59,185,41,144,31,112,41,141,44,126,41*66
$BDGSV,5,3,19,142,45,231,41,156,20,165,41,178,55,006,41,159,63,275,41*62
$BDGSV,5,4,19,188,70,353,41,160,52,026,41,169,78,183,41,170,24,147,41*6F
$BDGSV,5,5,19,175,35,317,41,179,27,160,41,180,32,185,41,,,,*6C
$GPGGA,000243.00,2813.3393316,N,11259.4846820,E,1,19,0.8,71.4304,M,-16.713,M,,*4F
$GPGSV,1,1,00,,,,,,,,,,,,,,,,*79
$BDGSV,5,1,19,147,36,197,41,153,49,320,41,150,42,213,41,148,51,342,41*69
$BDGSV,5,2,19,145,23,251,41,143,59,185,41,144,31,112,41,141,44,126,41*66
$BDGSV,5,3,19,142,45,231,41,156,20,165,41,178,55,006,41,159,63,275,41*62
$BDGSV,5,4,19,188,70,353,41,160,52,026,41,169,78,183,41,170,24,147,41*6F
$BDGSV,5,5,19,175,35,317,41,179,27,160,41,180,32,185,41,,,,*6C
$GPGGA,000244.00,2813.3393338,N,11259.4846846,E,1,19,0.8,71.4235,M,-16.713,M,,*47
$GPGSV,1,1,00,,,,,,,,,,,,,,,,*79
$BDGSV,5,1,19,147,36,197,41,153,49,320,40,150,42,213,41,148,51,342,41*68
$BDGSV,5,2,19,145,23,251,41,143,59,185,41,144,31,112,41,141,44,126,41*66
$BDGSV,5,3,19,142,45,231,41,156,20,165,41,178,55,006,41,159,63,275,41*62
$BDGSV,5,4,19,188,70,353,41,160,52,026,41,169,78,183,41,170,24,147,41*6F
$BDGSV,5,5,19,175,35,317,41,179,27,160,41,180,32,185,41,,,,*6C
$GPGGA,000245.00,2813.3393357,N,11259.4846864,E,1,19,0.8,71.4083,M,-16.713,M,,*40
$GPGSV,1,1,00,,,,,,,,,,,,,,,,*79
$BDGSV,5,1,19,147,36,197,41,153,49,320,41,150,41,213,41,148,51,342,41*6A
$BDGSV,5,2,19,145,23,251,41,143,59,185,41,144,31,112,41,141,44,126,41*66
$BDGSV,5,3,19,142,45,231,41,156,20,165,41,178,55,006,41,159,63,275,41*62
$BDGSV,5,4,19,188,70,353,41,160,52,026,41,169,78,183,41,170,24,147,41*6F
$BDGSV,5,5,19,175,35,317,41,179,27,160,41,180,32,185,41,,,,*6C
$GPGGA,000246.00,2813.3393379,N,11259.4846879,E,1,19,0.8,71.3927,M,-16.713,M,,*43
$GPGSV,1,1,00,,,,,,,,,,,,,,,,*79
$BDGSV,5,1,19,147,36,197,41,153,49,320,40,150,41,213,41,148,51,342,41*6B
$BDGSV,5,2,19,145,23,251,41,143,59,185,41,144,31,112,41,141,44,126,41*66
$BDGSV,5,3,19,142,45,231,41,156,20,165,41,178,55,006,41,159,63,275,41*62
$BDGSV,5,4,19,188,70,353,41,160,52,026,41,169,78,183,41,170,24,147,41*6F
$BDGSV,5,5,19,175,35,317,41,179,27,160,41,180,32,185,41,,,,*6C
$GPGGA,000247.00,2813.3393404,N,11259.4846890,E,1,19,0.8,71.3875,M,-16.713,M,,*4E
$GPGSV,1,1,00,,,,,,,,,,,,,,,,*79
$BDGSV,5,1,19,147,36,197,41,153,49,320,40,150,41,213,41,148,51,342,41*6B
$BDGSV,5,2,19,145,23,251,41,143,59,185,41,144,31,112,41,141,44,126,41*66
