$GPGGA,000007.00,2813.3395614,N,11259.4855911,E,1,19,0.8,71.6651,M,-16.713,M,,*4A
$GPGSV,1,1,00,,,,,,,,,,,,,,,,*79
$BDGSV,5,1,19,143,59,185,41,148,52,341,41,153,49,319,41,142,45,231,41*69
$BDGSV,5,2,19,141,44,126,41,150,42,213,41,147,37,196,41,144,31,112,41*6D
$BDGSV,5,3,19,145,23,251,41,156,20,165,41,169,80,185,41,188,70,351,41*68
$BDGSV,5,4,19,159,63,272,41,178,55,006,41,160,53,026,41,175,35,317,41*63
$BDGSV,5,5,19,180,33,185,41,179,26,160,41,170,25,147,41,,,,*6F
$GPGGA,000008.00,2813.3395093,N,11259.4855056,E,1,19,0.8,71.5578,M,-16.713,M,,*4D
$GPGSV,1,1,00,,,,,,,,,,,,,,,,*79
$BDGSV,5,1,19,143,59,185,42,148,52,341,41,153,49,319,41,142,45,231,41*6A
$BDGSV,5,2,19,141,44,126,41,150,42,213,41,147,37,196,41,144,31,112,41*6D
$BDGSV,5,3,19,145,23,251,41,156,20,165,41,169,80,185,41,188,70,351,41*68
$BDGSV,5,4,19,159,63,272,41,178,55,006,41,160,53,026,41,175,35,317,41*63
$BDGSV,5,5,19,180,33,185,41,179,26,160,41,170,25,147,42,,,,*6C
$GPGGA,000009.00,2813.3395792,N,11259.4855982,E,1,19,0.8,71.0901,M,-16.713,M,,*4D
$GPGSV,1,1,00,,,,,,,,,,,,,,,,*79
$BDGSV,5,1,19,143,59,185,41,148,52,341,41,153,49,319,41,142,45,231,41*69
$BDGSV,5,2,19,141,44,126,41,150,42,213,41,147,37,196,41,144,31,112,41*6D
$BDGSV,5,3,19,145,23,251,41,156,20,165,41,169,80,185,41,188,70,351,41*68
$BDGSV,5,4,19,159,63,272,41,178,55,006,41,160,53,026,41,175,35,317,41*63
$BDGSV,5,5,19,180,33,185,42,179,26,160,41,170,25,147,41,,,,*6C
$GPGGA,000010.00,2813.3396481,N,11259.4856305,E,1,19,0.8,71.0368,M,-16.713,M,,*44
$GPGSV,1,1,00,,,,,,,,,,,,,,,,*79
$BDGSV,5,1,19,143,59,185,41,148,52,341,41,153,49,319,41,142,45,231,41*69
$BDGSV,5,2,19,141,44,126,41,150,42,213,41,147,37,196,41,144,31,112,41*6D
$BDGSV,5,3,19,145,23,251,41,156,20,165,41,169,80,185,41,188,70,351,41*68
$BDGSV,5,4,19,159,63,272,41,178,55,006,41,160,53,026,41,175,35,317,41*63
$BDGSV,5,5,19,180,33,185,41,179,26,160,41,170,25,147,41,,,,*6F
$GPGGA,000011.00,2813.3396499,N,11259.4856580,E,1,19,0.8,71.0801,M,-16.713,M,,*43
$GPGSV,1,1,00,,,,,,,,,,,,,,,,*79
$BDGSV,5,1,19,143,59,185,41,148,52,341,42,153,49,319,41,142,45,231,42*69
$BDGSV,5,2,19,141,44,126,41,150,42,213,41,147,37,196,41,144,31,112,41*6D
$BDGSV,5,3,19,145,23,251,41,156,20,165,41,169,80,185,41,188,70,351,41*68
$BDGSV,5,4,19,159,63,272,42,178,55,006,41,160,53,026,41,175,35,317,41*60
$BDGSV,5,5,19,180,33,185,41,179,26,160,41,170,25,147,41,,,,*6F
$GPGGA,000012.00,2813.3396577,N,11259.4856502,E,1,19,0.8,71.0142,M,-16.713,M,,*45
$GPGSV,1,1,00,,,,,,,,,,,,,,,,*79
$BDGSV,5,1,19,143,59,185,41,148,52,341,41,153,49,319,41,142,45,231,41*69
$BDGSV,5,2,19,141,44,126,41,150,42,213,41,147,37,196,41,144,31,112,41*6D
$BDGSV,5,3,19,145,23,251,41,156,20,165,41,169,80,185,41,188,70,351,41*68
$BDGSV,5,4,19,159,63,272,41,178,55,006,41,160,53,026,41,175,35,317,41*63
$BDGSV,5,5,19,180,33,185,41,179,26,160,41,170,25,147,41,,,,*6F
$GPGGA,000013.00,2813.3396603,N,11259.4856503,E,1,19,0.8,71.0528,M,-16.713,M,,*4D
$GPGSV,1,1,00,,,,,,,,,,,,,,,,*79
$BDGSV,5,1,19,143,59,185,41,148,52,341,41,153,49,319,41,142,45,231,41*69
$BDGSV,5,2,19,141,44,126,41,150,42,213,41,147,36,196,41,144,31,112,41*6C
$BDGSV,5,3,19,145,23,251,41,156,20,165,41,169,80,185,41,188,70,351,41*68
$BDGSV,5,4,19,159,63,272,41,178,55,006,41,160,53,026,41,175,35,317,41*63
$BDGSV,5,5,19,180,33,185,41,179,26,160,41,170,25,147,41,,,,*6F
$GPGGA,000014.00,2813.3396609,N,11259.4856448,E,1,19,0.8,71.0954,M,-16.713,M,,*49
$GPGSV,1,1,00,,,,,,,,,,,,,,,,*79
$BDGSV,5,1,19,143,59,185,41,148,52,341,41,153,49,319,41,142,45,231,41*69
$BDGSV,5,2,19,141,44,126,41,150,42,213,41,147,36,196,41,144,31,112,41*6C
$BDGSV,5,3,19,145,23,251,41,156,20,165,41,169,80,185,41,188,70,351,41*68
$BDGSV,5,4,19,159,63,272,41,178,55,006,41,160,53,026,41,175,35,317,41*63
$BDGSV,5,5,19,180,33,185,41,179,26,160,41,170,25,147,41,,,,*6F
$GPGGA,000015.00,2813.3396383,N,11259.4856383,E,1,19,0.8,71.1630,M,-16.713,M,,*43
$GPGSV,1,1,00,,,,,,,,,,,,,,,,*79
$BDGSV,5,1,19,143,59,185,41,148,52,341,41,153,49,319,41,142,45,231,41*69
$BDGSV,5,2,19,141,44,126,41,150,42,213,41,147,36,196,42,144,31,112,41*6F
$BDGSV,5,3,19,145,23,251,41,156,20,165,41,169,80,185,41,188,70,351,41*68
$BDGSV,5,4,19,159,63,272,41,178,55,006,41,160,53,026,41,175,35,317,41*63
$BDGSV,5,5,19,180,33,185,41,179,26,160,41,170,25,147,41,,,,*6F
$GPGGA,000016.00,2813.3396269,N,11259.4856372,E,1,19,0.8,71.1687,M,-16.713,M,,*47
$GPGSV,1,1,00,,,,,,,,,,,,,,,,*79
$BDGSV,5,1,19,143,59,185,41,148,52,341,41,153,49,319,41,142,45,231,42*6A
$BDGSV,5,2,19,141,44,126,41,150,42,213,41,147,36,196,41,144,31,112,41*6C
$BDGSV,5,3,19,145,23,251,41,156,20,165,41,169,80,185,41,188,70,351,41*68
$BDGSV,5,4,19,159,63,272,41,178,55,006,41,160,53,026,41,175,35,317,41*63
$BDGSV,5,5,19,180,33,185,41,179,26,160,41,170,25,147,41,,,,*6F
$GPGGA,000017.00,2813.3396194,N,11259.4856237,E,1,19,0.8,71.1183,M,-16.713,M,,*44
$GPGSV,1,1,00,,,,,,,,,,,,,,,,*79
$BDGSV,5,1,19,143,59,185,41,148,52,341,41,153,49,319,41,142,45,231,41*69
$BDGSV,5,2,19,141,44,126,41,150,42,213,41,147,36,196,41,144,31,112,41*6C
$BDGSV,5,3,19,145,23,251,41,156,20,165,42,169,80,185,41,188,70,351,41*6B
$BDGSV,5,4,19,159,63,272,41,178,55,006,41,160,53,026,41,175,35,317,41*63
$BDGSV,5,5,19,180,33,185,41,179,26,160,41,170,25,147,41,,,,*6F
$GPGGA,000018.00,2813.3396230,N,11259.4856140,E,1,19,0.8,71.0550,M,-16.713,M,,*4E
$GPGSV,1,1,00,,,,,,,,,,,,,,,,*79
$BDGSV,5,1,19,143,59,185,41,148,52,341,41,153,49,320,41,142,45,231,42*60
$BDGSV,5,2,19,141,44,126,41,150,42,213,41,147,36,196,41,144,31,112,41*6C
$BDGSV,5,3,19,145,23,251,41,156,20,165,41,169,80,185,41,188,70,351,41*68
$BDGSV,5,4,19,159,63,272,41,178,55,006,41,160,53,026,41,175,35,317,41*63
$BDGSV,5,5,19,180,33,185,41,179,26,160,41,170,25,147,41,,,,*6F
$GPGGA,000019.00,2813.3396238,N,11259.4856077,E,1,19,0.8,71.0173,M,-16.713,M,,*47
$GPGSV,1,1,00,,,,,,,,,,,,,,,,*79
$BDGSV,5,1,19,143,59,185,41,148,52,341,41,153,49,320,41,142,45,231,41*63
$BDGSV,5,2,19,141,44,126,42,150,42,213,41,147,36,196,41,144,31,112,41*6F
$BDGSV,5,3,19,145,23,251,41,156,20,165,41,169,80,185,42,188,70,351,42*68
$BDGSV,5,4,19,159,63,272,41,178,55,006,41,160,53,026,42,175,35,317,41*60
$BDGSV,5,5,19,180,33,185,41,179,26,160,41,170,25,147,41,,,,*6F
$GPGGA,000020.00,2813.3396383,N,11259.4856074,E,1,19,0.8,70.9609,M,-16.713,M,,*4D
$GPGSV,1,1,00,,,,,,,,,,,,,,,,*79
$BDGSV,5,1,19,143,59,185,41,148,52,341,41,153,49,320,41,142,45,231,41*63
$BDGSV,5,2,19,141,44,126,41,150,42,213,41,147,36,196,41,144,31,112,41*6C
$BDGSV,5,3,19,145,23,251,41,156,20,165,41,169,80,185,41,188,70,351,41*68
$BDGSV,5,4,19,159,63,272,41,178,55,006,41,160,53,026,41,175,35,317,41*63
$BDGSV,5,5,19,180,33,185,41,179,26,160,41,170,25,147,41,,,,*6F
$GPGGA,000021.00,2813.3396396,N,11259.4855606,E,1,19,0.8,70.9858,M,-16.713,M,,*42
$GPGSV,1,1,00,,,,,,,,,,,,,,,,*79
$BDGSV,5,1,19,143,59,185,41,148,52,341,42,153,49,320,41,142,45,231,41*60
$BDGSV,5,2,19,141,44,126,41,150,42,213,42,147,36,196,41,144,31,112,41*6F
$BDGSV,5,3,19,145,23,251,41,156,20,165,41,169,80,185,41,188,70,351,41*68
$BDGSV,5,4,19,159,63,272,41,178,55,006,41,160,53,026,42,175,35,317,41*60
$BDGSV,5,5,19,180,33,185,41,179,26,160,41,170,25,147,41,,,,*6F
$GPGGA,000022.00,2813.3396421,N,11259.4855090,E,1,19,0.8,70.9456,M,-16.713,M,,*41
$GPGSV,1,1,00,,,,,,,,,,,,,,,,*79
$BDGSV,5,1,19,143,59,185,41,148,52,341,41,153,49,320,41,142,45,231,41*63
$BDGSV,5,2,19,141,44,126,41,150,42,213,41,147,36,197,41,144,31,112,41*6D
$BDGSV,5,3,19,145,23,251,41,156,20,165,41,169,80,185,41,188,70,351,41*68
$BDGSV,5,4,19,159,63,272,41,178,55,006,41,160,53,026,41,175,35,317,41*63
$BDGSV,5,5,19,180,33,185,41,179,26,160,41,170,24,147,41,,,,*6E
$GPGGA,000023.00,2813.3396636,N,11259.4855024,E,1,19,0.8,70.8259,M,-16.713,M,,*43
$GPGSV,1,1,00,,,,,,,,,,,,,,,,*79
$BDGSV,5,1,19,143,59,185,41,148,52,341,41,153,49,320,41,142,45,231,41*63
$BDGSV,5,2,19,141,44,126,41,150,42,213,41,147,36,197,41,144,31,112,41*6D
$BDGSV,5,3,19,145,23,251,41,156,20,165,41,169,80,185,41,188,70,351,41*68
$BDGSV,5,4,19,159,63,272,40,178,55,006,41,160,53,026,41,175,35,317,41*62
$BDGSV,5,5,19,180,33,185,41,179,26,160,41,170,24,147,41,,,,*6E
$GPGGA,000024.00,2813.3396719,N,11259.4854745,E,1,19,0.8,70.8280,M,-16.713,M,,*4D
$GPGSV,1,1,00,,,,,,,,,,,,,,,,*79
$BDGSV,5,1,19,143,59,185,42,148,52,341,41,153,49,320,41,142,45,231,41*60
$BDGSV,5,2,19,141,44,126,41,150,42,213,41,147,36,197,41,144,31,112,41*6D
$BDGSV,5,3,19,145,23,251,41,156,20,165,41,169,79,185,41,188,70,351,41*6E
$BDGSV,5,4,19,159,63,272,41,178,55,006,41,160,53,026,41,175,35,317,41*63
$BDGSV,5,5,19,180,33,185,42,179,26,160,41,170,24,147,41,,,,*6D
$GPGGA,000025.00,2813.3396824,N,11259.4854665,E,1,19,0.8,70.7319,M,-16.713,M,,*40
$GPGSV,1,1,00,,,,,,,,,,,,,,,,*79
$BDGSV,5,1,19,143,59,185,41,148,52,341,41,153,49,320,41,142,45,231,41*63
$BDGSV,5,2,19,141,44,126,41,150,42,213,41,147,36,197,41,144,31,112,41*6D
$BDGSV,5,3,19,145,23,251,41,156,20,165,41,169,79,185,41,188,70,351,41*6E
$BDGSV,5,4,19,159,63,272,41,178,55,006,41,160,53,026,41,175,35,317,41*63
$BDGSV,5,5,19,180,33,185,41,179,26,160,42,170,24,147,41,,,,*6D
$GPGGA,000026.00,2813.3397030,N,11259.4854770,E,1,19,0.8,70.5599,M,-16.713,M,,*46
$GPGSV,1,1,00,,,,,,,,,,,,,,,,*79
$BDGSV,5,1,19,143,59,185,41,148,52,341,41,153,49,320,41,142,45,231,41*63
$BDGSV,5,2,19,141,44,126,41,150,42,213,41,147,36,197,41,144,31,112,41*6D
$BDGSV,5,3,19,145,23,251,41,156,20,165,41,169,79,185,41,188,70,351,41*6E
$BDGSV,5,4,19,159,63,272,42,178,55,006,41,160,53,026,41,175,35,317,41*60
$BDGSV,5,5,19,180,33,185,41,179,26,160,41,170,24,147,41,,,,*6E
$GPGGA,000027.00,2813.3397140,N,11259.4854571,E,1,19,0.8,70.5414,M,-16.713,M,,*46
$GPGSV,1,1,00,,,,,,,,,,,,,,,,*79
$BDGSV,5,1,19,143,59,185,41,148,52,341,41,153,49,320,41,142,45,231,41*63
$BDGSV,5,2,19,141,44,126,41,150,42,213,41,147,36,197,41,144,31,112,41*6D
$BDGSV,5,3,19,145,23,251,41,156,20,165,41,169,79,185,41,188,70,351,41*6E
$BDGSV,5,4,19,159,63,272,41,178,55,006,41,160,53,026,41,175,35,317,41*63
$BDGSV,5,5,19,180,33,185,41,179,26,160,41,170,24,147,41,,,,*6E
$GPGGA,000028.00,2813.3397157,N,11259.4854259,E,1,19,0.8,70.5701,M,-16.713,M,,*45
$GPGSV,1,1,00,,,,,,,,,,,,,,,,*79
$BDGSV,5,1,19,143,59,185,41,148,52,341,41,153,49,320,41,142,45,231,41*63
$BDGSV,5,2,19,141,44,126,41,150,42,213,41,147,36,197,41,144,31,112,41*6D
$BDGSV,5,3,19,145,23,251,41,156,20,165,41,169,79,185,41,188,70,351,41*6E
$BDGSV,5,4,19,159,63,272,41,178,55,006,41,160,53,026,41,175,35,317,41*63
$BDGSV,5,5,19,180,33,185,40,179,26,160,41,170,24,147,41,,,,*6F
$GPGGA,000029.00,2813.3397240,N,11259.4854183,E,1,19,0.8,70.4790,M,-16.713,M,,*4C
$GPGSV,1,1,00,,,,,,,,,,,,,,,,*79
$BDGSV,5,1,19,143,59,185,41,148,52,341,42,153,49,320,42,142,45,231,41*63
$BDGSV,5,2,19,141,44,126,41,150,42,213,42,147,36,197,41,144,31,112,41*6E
$BDGSV,5,3,19,145,23,251,42,156,20,165,41,169,79,185,41,188,70,351,42*6E
$BDGSV,5,4,19,159,63,272,41,178,55,006,41,160,53,026,41,175,35,317,41*63
$BDGSV,5,5,19,180,33,185,41,179,26,160,41,170,24,147,41,,,,*6E
$GPGGA,000030.00,2813.3397320,N,11259.4854088,E,1,19,0.8,70.4356,M,-16.713,M,,*47
$GPGSV,1,1,00,,,,,,,,,,,,,,,,*79
$BDGSV,5,1,19,143,59,185,41,148,52,341,41,153,49,320,41,142,45,231,41*63
$BDGSV,5,2,19,141,44,126,41,150,42,213,41,147,36,197,41,144,31,112,41*6D
$BDGSV,5,3,19,145,23,251,41,156,20,165,41,169,79,185,41,188,70,351,41*6E
$BDGSV,5,4,19,159,63,272,41,178,55,006,41,160,53,026,41,175,35,317,41*63
$BDGSV,5,5,19,180,33,185,41,179,26,160,41,170,24,147,41,,,,*6E
$GPGGA,000031.00,2813.3397370,N,11259.4853964,E,1,19,0.8,70.4813,M,-16.713,M,,*45
$GPGSV,1,1,00,,,,,,,,,,,,,,,,*79
$BDGSV,5,1,19,143,59,185,42,148,52,341,42,153,49,320,41,142,45,231,41*63
$BDGSV,5,2,19,141,44,126,41,150,42,213,41,147,36,197,41,144,31,112,41*6D
$BDGSV,5,3,19,145,23,251,41,156,20,165,41,169,79,185,41,188,70,351,41*6E
$BDGSV,5,4,19,159,63,273,41,178,55,006,41,160,52,026,41,175,35,317,41*63
$BDGSV,5,5,19,180,33,185,41,179,26,160,41,170,24,147,42,,,,*6D
$GPGGA,000032.00,2813.3397388,N,11259.4854001,E,1,19,0.8,70.4698,M,-16.713,M,,*41
$GPGSV,1,1,00,,,,,,,,,,,,,,,,*79
$BDGSV,5,1,19,143,59,185,41,148,52,341,42,153,49,320,41,142,45,231,41*60
$BDGSV,5,2,19,141,44,126,41,150,42,213,41,147,36,197,41,144,31,112,41*6D
$BDGSV,5,3,19,145,23,251,41,156,20,165,41,169,79,185,42,188,70,351,41*6D
$BDGSV,5,4,19,159,63,273,41,178,55,006,41,160,52,026,41,175,35,317,41*63
$BDGSV,5,5,19,180,33,185,41,179,26,160,41,170,24,147,41,,,,*6E
$GPGGA,000033.00,2813.3397380,N,11259.4854047,E,1,19,0.8,70.4534,M,-16.713,M,,*4F
$GPGSV,1,1,00,,,,,,,,,,,,,,,,*79
$BDGSV,5,1,19,143,59,185,41,148,52,341,41,153,49,320,41,142,45,231,41*63
$BDGSV,5,2,19,141,44,126,41,150,42,213,41,147,36,197,41,144,31,112,41*6D
$BDGSV,5,3,19,145,23,251,41,156,20,165,41,169,79,185,41,188,70,351,41*6E
$BDGSV,5,4,19,159,63,273,42,178,55,006,41,160,52,026,41,175,35,317,41*60
$BDGSV,5,5,19,180,33,185,41,179,26,160,41,170,24,147,41,,,,*6E
$GPGGA,000034.00,2813.3397385,N,11259.4854034,E,1,19,0.8,70.4489,M,-16.713,M,,*4E
$GPGSV,1,1,00,,,,,,,,,,,,,,,,*79
$BDGSV,5,1,19,143,59,185,41,148,52,341,41,153,49,320,41,142,45,231,41*63
$BDGSV,5,2,19,141,44,126,41,150,42,213,41,147,36,197,41,144,31,112,41*6D
$BDGSV,5,3,19,145,23,251,41,156,20,165,41,169,79,185,41,188,70,351,41*6E
$BDGSV,5,4,19,159,63,273,41,178,55,006,41,160,52,026,41,175,35,317,41*63
$BDGSV,5,5,19,180,33,185,41,179,26,160,41,170,24,147,41,,,,*6E
$GPGGA,000035.00,2813.3397364,N,11259.4853998,E,1,19,0.8,70.4644,M,-16.713,M,,*4B
$GPGSV,1,1,00,,,,,,,,,,,,,,,,*79
$BDGSV,5,1,19,143,59,185,41,148,52,341,41,153,49,320,41,142,45,231,41*63
$BDGSV,5,2,19,141,44,126,41,150,42,213,41,147,36,197,41,144,31,112,41*6D
$BDGSV,5,3,19,145,23,251,41,156,20,165,41,169,79,185,41,188,70,352,41*6D
$BDGSV,5,4,19,159,63,273,41,178,55,006,41,160,52,026,41,175,35,317,41*63
$BDGSV,5,5,19,180,33,185,41,179,26,160,41,170,24,147,41,,,,*6E
$GPGGA,000036.00,2813.3397363,N,11259.4853975,E,1,19,0.8,70.4687,M,-16.713,M,,*43
$GPGSV,1,1,00,,,,,,,,,,,,,,,,*79
$BDGSV,5,1,19,143,59,185,41,148,52,341,41,153,49,320,41,142,45,231,41*63
$BDGSV,5,2,19,141,44,126,41,150,42,213,41,147,36,197,41,144,31,112,41*6D
$BDGSV,5,3,19,145,23,251,41,156,20,165,41,169,79,185,41,188,70,352,41*6D
$BDGSV,5,4,19,159,63,273,41,178,55,006,41,160,52,026,41,175,35,317,41*63
$BDGSV,5,5,19,180,33,185,41,179,26,160,41,170,24,147,41,,,,*6E
$GPGGA,000037.00,2813.3397364,N,11259.4853948,E,1,19,0.8,70.4695,M,-16.713,M,,*48
$GPGSV,1,1,00,,,,,,,,,,,,,,,,*79
$BDGSV,5,1,19,143,59,185,41,148,52,341,41,153,49,320,41,142,45,231,41*63
$BDGSV,5,2,19,141,44,126,41,150,42,213,41,147,36,197,41,144,31,112,41*6D
$BDGSV,5,3,19,145,23,251,41,156,20,165,41,169,79,185,41,188,70,352,41*6D
$BDGSV,5,4,19,159,63,273,41,178,55,006,41,160,52,026,41,175,35,317,41*63
$BDGSV,5,5,19,180,33,185,41,179,26,160,41,170,24,147,41,,,,*6E
$GPGGA,000038.00,2813.3397365,N,11259.4853928,E,1,19,0.8,70.4714,M,-16.713,M,,*48
$GPGSV,1,1,00,,,,,,,,,,,,,,,,*79
$BDGSV,5,1,19,143,59,185,41,148,52,341,41,153,49,320,41,142,45,231,41*63
$BDGSV,5,2,19,141,44,126,41,150,42,213,41,147,36,197,41,144,31,112,41*6D
$BDGSV,5,3,19,145,23,251,41,156,20,165,41,169,79,185,41,188,70,352,41*6D
$BDGSV,5,4,19,159,63,273,41,178,55,006,41,160,52,026,41,175,35,317,41*63
$BDGSV,5,5,19,180,33,185,41,179,26,160,41,170,24,147,41,,,,*6E
$GPGGA,000039.00,2813.3397372,N,11259.4853929,E,1,19,0.8,70.4669,M,-16.713,M,,*45
$GPGSV,1,1,00,,,,,,,,,,,,,,,,*79
$BDGSV,5,1,19,143,59,185,41,148,52,341,41,153,49,320,41,142,45,231,41*63
$BDGSV,5,2,19,141,44,126,41,150,42,213,41,147,36,197,41,144,31,112,41*6D
$BDGSV,5,3,19,145,23,251,41,156,20,165,41,169,79,184,41,188,70,352,41*6C
$BDGSV,5,4,19,159,63,273,41,178,55,006,41,160,52,026,41,175,35,317,41*63
$BDGSV,5,5,19,180,33,185,41,179,26,160,41,170,24,147,41,,,,*6E
$GPGGA,000040.00,2813.3397371,N,11259.4853934,E,1,19,0.8,70.4609,M,-16.713,M,,*42
$GPGSV,1,1,00,,,,,,,,,,,,,,,,*79
$BDGSV,5,1,19,143,59,185,41,148,52,341,41,153,49,320,41,142,45,231,41*63
$BDGSV,5,2,19,141,44,126,41,150,42,213,41,147,36,197,41,144,31,112,41*6D
$BDGSV,5,3,19,145,23,251,41,156,20,165,41,169,79,184,41,188,70,352,41*6C
$BDGSV,5,4,19,159,63,273,41,178,55,006,41,160,52,026,41,175,35,317,41*63
$BDGSV,5,5,19,180,33,185,41,179,26,160,41,170,24,147,41,,,,*6E
$GPGGA,000041.00,2813.3397380,N,11259.4853919,E,1,19,0.8,70.4561,M,-16.713,M,,*4F
$GPGSV,1,1,00,,,,,,,,,,,,,,,,*79
$BDGSV,5,1,19,143,59,185,41,148,52,341,41,153,49,320,41,142,45,231,41*63
$BDGSV,5,2,19,141,44,126,41,150,42,213,41,147,36,197,41,144,31,112,41*6D
$BDGSV,5,3,19,145,23,251,41,156,20,165,41,169,79,184,41,188,70,352,41*6C
$BDGSV,5,4,19,159,63,273,41,178,55,006,41,160,52,026,41,175,35,317,41*63
$BDGSV,5,5,19,180,33,185,41,179,26,160,41,170,24,147,41,,,,*6E
$GPGGA,000042.00,2813.3397373,N,11259.4853899,E,1,19,0.8,70.4576,M,-16.713,M,,*4F
$GPGSV,1,1,00,,,,,,,,,,,,,,,,*79
$BDGSV,5,1,19,143,59,185,41,148,52,341,41,153,49,320,41,142,45,231,41*63
$BDGSV,5,2,19,141,44,126,41,150,42,213,41,147,36,197,41,144,31,112,41*6D
$BDGSV,5,3,19,145,23,251,41,156,20,165,41,169,79,184,41,188,70,352,41*6C
$BDGSV,5,4,19,159,63,273,41,178,55,006,41,160,52,026,41,175,35,317,41*63
$BDGSV,5,5,19,180,33,185,41,179,26,160,41,170,24,147,41,,,,*6E
$GPGGA,000043.00,2813.3397360,N,11259.4853883,E,1,19,0.8,70.4587,M,-16.713,M,,*49
$GPGSV,1,1,00,,,,,,,,,,,,,,,,*79
$BDGSV,5,1,19,143,59,185,41,148,52,342,41,153,49,320,41,142,45,231,41*60
$BDGSV,5,2,19,141,44,126,41,150,42,213,41,147,36,197,41,144,31,112,41*6D
$BDGSV,5,3,19,145,23,251,41,156,20,165,42,169,79,184,41,188,70,352,41*6F
$BDGSV,5,4,19,159,63,273,41,178,55,006,41,160,52,026,41,175,35,317,41*63
$BDGSV,5,5,19,180,33,185,41,179,26,160,41,170,24,147,42,,,,*6D
$GPGGA,000044.00,2813.3397361,N,11259.4853882,E,1,19,0.8,70.4564,M,-16.713,M,,*43
$GPGSV,1,1,00,,,,,,,,,,,,,,,,*79
$BDGSV,5,1,19,143,59,185,41,148,52,342,41,153,49,320,41,142,45,231,42*63
$BDGSV,5,2,19,141,44,126,41,150,42,213,42,147,36,197,41,144,31,112,41*6E
$BDGSV,5,3,19,145,23,251,42,156,20,165,41,169,79,184,41,188,70,352,42*6C
$BDGSV,5,4,19,159,63,273,41,178,55,006,42,160,52,026,42,175,35,317,42*60
$BDGSV,5,5,19,180,33,185,41,179,26,160,41,170,24,147,41,,,,*6E
$GPGGA,000045.00,2813.3397358,N,11259.4853872,E,1,19,0.8,70.4628,M,-16.713,M,,*4C
$GPGSV,1,1,00,,,,,,,,,,,,,,,,*79
$BDGSV,5,1,19,143,59,185,41,148,52,342,41,153,49,320,41,142,45,231,41*60
$BDGSV,5,2,19,141,44,126,41,150,42,213,41,147,36,197,41,144,31,112,41*6D
$BDGSV,5,3,19,145,23,251,41,156,20,165,41,169,79,184,41,188,70,352,41*6C
$BDGSV,5,4,19,159,63,273,41,178,55,006,41,160,52,026,41,175,35,317,41*63
$BDGSV,5,5,19,180,33,185,41,179,26,160,41,170,24,147,41,,,,*6E
$GPGGA,000046.00,2813.3397347,N,11259.4853850,E,1,19,0.8,70.4696,M,-16.713,M,,*44
$GPGSV,1,1,00,,,,,,,,,,,,,,,,*79
$BDGSV,5,1,19,143,59,185,41,148,52,342,41,153,49,320,41,142,45,231,41*60
$BDGSV,5,2,19,141,44,126,41,150,42,213,41,147,36,197,41,144,31,112,41*6D
$BDGSV,5,3,19,145,23,251,41,156,20,165,41,169,79,184,41,188,70,352,41*6C
$BDGSV,5,4,19,159,63,273,41,178,55,006,41,160,52,026,41,175,35,317,41*63
$BDGSV,5,5,19,180,33,185,41,179,26,160,41,170,24,147,41,,,,*6E
$GPGGA,000047.00,2813.3397346,N,11259.4853819,E,1,19,0.8,70.4724,M,-16.713,M,,*41
$GPGSV,1,1,00,,,,,,,,,,,,,,,,*79
$BDGSV,5,1,19,143,59,185,41,148,52,342,41,153,49,320,41,142,45,231,41*60
$BDGSV,5,2,19,141,44,126,41,150,42,213,41,147,36,197,41,144,31,112,41*6D
$BDGSV,5,3,19,145,23,251,41,156,20,165,41,169,79,184,41,188,70,352,41*6C
$BDGSV,5,4,19,159,63,273,41,178,55,006,41,160,52,026,41,175,35,317,41*63
$BDGSV,5,5,19,180,33,185,41,179,26,160,41,170,24,147,41,,,,*6E
$GPGGA,000048.00,2813.3397355,N,11259.4853803,E,1,19,0.8,70.4651,M,-16.713,M,,*44
$GPGSV,1,1,00,,,,,,,,,,,,,,,,*79
$BDGSV,5,1,19,143,59,185,41,148,52,342,41,153,49,320,41,142,45,231,41*60
$BDGSV,5,2,19,141,44,126,41,150,42,213,41,147,36,197,41,144,31,112,41*6D
$BDGSV,5,3,19,145,23,251,41,156,20,165,41,169,79,184,41,188,70,352,41*6C
$BDGSV,5,4,19,159,63,273,41,178,55,006,41,160,52,026,41,175,35,317,41*63
$BDGSV,5,5,19,180,33,185,41,179,26,160,41,170,24,147,41,,,,*6E
$GPGGA,000049.00,2813.3397362,N,11259.4853788,E,1,19,0.8,70.4583,M,-16.713,M,,*41
$GPGSV,1,1,00,,,,,,,,,,,,,,,,*79
$BDGSV,5,1,19,143,59,185,41,148,52,342,41,153,49,320,41,142,45,231,41*60
$BDGSV,5,2,19,141,44,126,41,150,42,213,41,147,36,197,41,144,31,112,41*6D
$BDGSV,5,3,19,145,23,251,41,156,20,165,41,169,79,184,41,188,70,352,41*6C
$BDGSV,5,4,19,159,63,273,41,178,55,006,41,160,52,026,41,175,35,317,41*63
$BDGSV,5,5,19,180,33,185,41,179,26,160,41,170,24,147,41,,,,*6E
$GPGGA,000050.00,2813.3397356,N,11259.4853767,E,1,19,0.8,70.4640,M,-16.713,M,,*43
$GPGSV,1,1,00,,,,,,,,,,,,,,,,*79
$BDGSV,5,1,19,143,59,185,41,148,52,342,41,153,49,320,41,142,45,231,41*60
$BDGSV,5,2,19,141,44,126,41,150,42,213,41,147,36,197,41,144,31,112,41*6D
$BDGSV,5,3,19,145,23,251,42,156,20,165,41,169,79,184,41,188,70,352,41*6F
$BDGSV,5,4,19,159,63,273,41,178,55,006,41,160,52,026,41,175,35,317,41*63
$BDGSV,5,5,19,180,33,185,41,179,26,160,41,170,24,147,41,,,,*6E
$GPGGA,000051.00,2813.3397356,N,11259.4853770,E,1,19,0.8,70.4648,M,-16.713,M,,*4C
$GPGSV,1,1,00,,,,,,,,,,,,,,,,*79
$BDGSV,5,1,19,143,59,185,41,148,52,342,41,153,49,320,41,142,45,231,41*60
$BDGSV,5,2,19,141,44,126,41,150,42,213,41,147,36,197,41,144,31,112,41*6D
$BDGSV,5,3,19,145,23,251,41,156,20,165,41,169,79,184,41,188,70,352,41*6C
$BDGSV,5,4,19,159,63,273,41,178,55,006,41,160,52,026,41,175,35,317,41*63
$BDGSV,5,5,19,180,33,185,41,179,26,160,41,170,24,147,41,,,,*6E
$GPGGA,000052.00,2813.3397366,N,11259.4853776,E,1,19,0.8,70.4518,M,-16.713,M,,*4C
$GPGSV,1,1,00,,,,,,,,,,,,,,,,*79
$BDGSV,5,1,19,143,59,185,41,148,52,342,41,153,49,320,41,142,45,231,41*60
$BDGSV,5,2,19,141,44,126,42,150,42,213,41,147,36,197,42,144,31,112,41*6D
$BDGSV,5,3,19,145,23,251,41,156,20,165,42,169,79,184,41,188,70,352,42*6C
$BDGSV,5,4,19,159,63,273,42,178,55,006,42,160,52,026,42,175,35,317,41*60
$BDGSV,5,5,19,180,33,185,42,179,26,160,42,170,24,147,41,,,,*6E
$GPGGA,000053.00,2813.3397364,N,11259.4853766,E,1,19,0.8,70.4538,M,-16.713,M,,*4C
$GPGSV,1,1,00,,,,,,,,,,,,,,,,*79
$BDGSV,5,1,19,143,59,185,41,148,52,342,41,153,49,320,41,142,45,231,41*60
$BDGSV,5,2,19,141,44,126,41,150,42,213,41,147,36,197,41,144,31,112,41*6D
$BDGSV,5,3,19,145,23,251,41,156,20,165,41,169,79,184,41,188,70,352,41*6C
$BDGSV,5,4,19,159,63,273,41,178,55,006,41,160,52,026,41,175,35,317,41*63
$BDGSV,5,5,19,180,33,185,41,179,26,160,41,170,24,147,41,,,,*6E
$GPGGA,000054.00,2813.3397350,N,11259.4853745,E,1,19,0.8,70.4647,M,-16.713,M,,*46
$GPGSV,1,1,00,,,,,,,,,,,,,,,,*79
$BDGSV,5,1,19,143,59,185,41,148,52,342,42,153,49,320,41,142,45,231,41*63
$BDGSV,5,2,19,141,44,126,41,150,42,213,41,147,36,197,41,144,31,112,41*6D
$BDGSV,5,3,19,145,23,251,41,156,20,165,41,169,79,184,42,188,70,352,42*6C
$BDGSV,5,4,19,159,63,273,42,178,55,006,41,160,52,026,42,175,35,317,41*63
$BDGSV,5,5,19,180,33,185,42,179,26,160,41,170,24,147,42,,,,*6E
$GPGGA,000055.00,2813.3397344,N,11259.4853736,E,1,19,0.8,70.4722,M,-16.713,M,,*44
$GPGSV,1,1,00,,,,,,,,,,,,,,,,*79
$BDGSV,5,1,19,143,59,185,41,148,52,342,41,153,49,320,41,142,45,231,41*60
$BDGSV,5,2,19,141,44,126,41,150,42,213,41,147,36,197,41,144,31,112,42*6E
$BDGSV,5,3,19,145,23,251,41,156,20,165,41,169,79,184,41,188,70,352,41*6C
$BDGSV,5,4,19,159,63,273,41,178,55,006,41,160,52,026,41,175,35,317,41*63
$BDGSV,5,5,19,180,33,185,41,179,26,160,41,170,24,147,41,,,,*6E
$GPGGA,000056.00,2813.3397352,N,11259.4853737,E,1,19,0.8,70.4687,M,-16.713,M,,*4F
$GPGSV,1,1,00,,,,,,,,,,,,,,,,*79
$BDGSV,5,1,19,143,59,185,41,148,52,342,41,153,49,320,41,142,45,231,41*60
$BDGSV,5,2,19,141,44,126,41,150,42,213,41,147,36,197,42,144,31,112,41*6E
$BDGSV,5,3,19,145,23,251,41,156,20,165,41,169,79,184,41,188,70,352,41*6C
$BDGSV,5,4,19,159,63,273,42,178,55,006,41,160,52,026,41,175,35,317,41*60
$BDGSV,5,5,19,180,33,185,41,179,26,160,41,170,24,147,41,,,,*6E
$GPGGA,000057.00,2813.3397348,N,11259.4853717,E,1,19,0.8,70.4704,M,-16.713,M,,*4D
$GPGSV,1,1,00,,,,,,,,,,,,,,,,*79
$BDGSV,5,1,19,143,59,185,41,148,52,342,41,153,49,320,41,142,45,231,41*60
$BDGSV,5,2,19,141,44,126,41,150,42,213,41,147,36,197,41,144,31,112,41*6D
$BDGSV,5,3,19,145,23,251,41,156,20,165,41,169,79,184,42,188,70,352,41*6F
$BDGSV,5,4,19,159,63,273,41,178,55,006,41,160,52,026,41,175,35,317,41*63
$BDGSV,5,5,19,180,33,185,41,179,26,160,41,170,24,147,41,,,,*6E
$GPGGA,000058.00,2813.3397342,N,11259.4853685,E,1,19,0.8,70.4759,M,-16.713,M,,*4A
$GPGSV,1,1,00,,,,,,,,,,,,,,,,*79
$BDGSV,5,1,19,143,59,185,41,148,52,342,40,153,49,320,41,142,45,231,41*61
$BDGSV,5,2,19,141,44,126,41,150,42,213,41,147,36,197,41,144,31,112,41*6D
$BDGSV,5,3,19,145,23,251,41,156,20,165,41,169,79,184,41,188,70,352,41*6C
$BDGSV,5,4,19,159,63,273,41,178,55,006,41,160,52,026,41,175,35,317,41*63
$BDGSV,5,5,19,180,33,185,41,179,26,160,41,170,24,147,41,,,,*6E
$GPGGA,000059.00,2813.3397342,N,11259.4853680,E,1,19,0.8,70.4731,M,-16.713,M,,*40
$GPGSV,1,1,00,,,,,,,,,,,,,,,,*79
$BDGSV,5,1,19,143,59,185,41,148,52,342,41,153,49,320,41,142,45,231,41*60
$BDGSV,5,2,19,141,44,126,41,150,42,213,41,147,36,197,41,144,31,112,41*6D
$BDGSV,5,3,19,145,23,251,41,156,20,165,41,169,79,184,41,188,70,352,41*6C
$BDGSV,5,4,19,159,63,273,41,178,55,006,41,160,52,026,41,175,35,317,41*63
$BDGSV,5,5,19,180,33,185,41,179,26,160,41,170,24,147,41,,,,*6E
$GPGGA,000100.00,2813.3397349,N,11259.4853670,E,1,19,0.8,70.4681,M,-16.713,M,,*43
$GPGSV,1,1,00,,,,,,,,,,,,,,,,*79
$BDGSV,5,1,19,143,59,185,41,148,52,342,41,153,49,320,41,142,45,231,41*60
$BDGSV,5,2,19,141,44,126,41,150,42,213,41,147,36,197,41,144,31,112,41*6D
$BDGSV,5,3,19,145,23,251,41,156,20,165,41,169,79,184,41,188,70,352,41*6C
$BDGSV,5,4,19,159,63,273,41,178,55,006,41,160,52,026,41,175,35,317,41*63
$BDGSV,5,5,19,180,33,185,41,179,26,160,41,170,24,147,41,,,,*6E
$GPGGA,000101.00,2813.3397341,N,11259.4853644,E,1,19,0.8,70.4683,M,-16.713,M,,*4F
$GPGSV,1,1,00,,,,,,,,,,,,,,,,*79
$BDGSV,5,1,19,143,59,185,41,148,52,342,41,153,49,320,41,142,45,231,41*60
$BDGSV,5,2,19,141,44,126,41,150,42,213,41,147,36,197,41,144,31,112,41*6D
$BDGSV,5,3,19,145,23,251,41,156,20,165,41,169,79,184,41,188,70,352,41*6C
$BDGSV,5,4,19,159,63,273,41,178,55,006,41,160,52,026,41,175,35,317,41*63
$BDGSV,5,5,19,180,33,185,41,179,26,160,41,170,24,147,41,,,,*6E
$GPGGA,000102.00,2813.3397345,N,11259.4853640,E,1,19,0.8,70.4647,M,-16.713,M,,*44
$GPGSV,1,1,00,,,,,,,,,,,,,,,,*79
$BDGSV,5,1,19,143,59,185,41,148,52,342,41,153,49,320,41,142,45,231,41*60
$BDGSV,5,2,19,141,44,126,41,150,42,213,41,147,36,197,41,144,31,112,42*6E
$BDGSV,5,3,19,145,23,251,42,156,20,165,41,169,79,184,41,188,70,352,41*6F
$BDGSV,5,4,19,159,63,273,41,178,55,006,41,160,52,026,41,175,35,317,41*63
$BDGSV,5,5,19,180,33,185,41,179,26,160,41,170,24,147,41,,,,*6E
$GPGGA,000103.00,2813.3397351,N,11259.4853644,E,1,19,0.8,70.4564,M,-16.713,M,,*46
$GPGSV,1,1,00,,,,,,,,,,,,,,,,*79
$BDGSV,5,1,19,143,59,185,42,148,52,342,41,153,49,320,41,142,45,231,41*63
$BDGSV,5,2,19,141,44,126,41,150,42,213,42,147,36,197,41,144,31,112,41*6E
$BDGSV,5,3,19,145,23,251,41,156,20,165,41,169,79,184,41,188,70,352,41*6C
$BDGSV,5,4,19,159,63,273,41,178,55,006,41,160,52,026,41,175,35,317,41*63
$BDGSV,5,5,19,180,33,185,42,179,26,160,42,170,24,147,41,,,,*6E
$GPGGA,000104.00,2813.3397343,N,11259.4853639,E,1,19,0.8,70.4596,M,-16.713,M,,*45
$GPGSV,1,1,00,,,,,,,,,,,,,,,,*79
$BDGSV,5,1,19,143,59,185,41,148,52,342,41,153,49,320,41,142,45,231,41*60
$BDGSV,5,2,19,141,44,126,41,150,42,213,41,147,36,197,41,144,31,112,41*6D
$BDGSV,5,3,19,145,23,251,41,156,20,165,41,169,79,184,41,188,70,352,41*6C
$BDGSV,5,4,19,159,63,273,41,178,55,006,41,160,52,026,41,175,35,317,41*63
$BDGSV,5,5,19,180,33,185,41,179,26,160,41,170,24,147,41,,,,*6E
$GPGGA,000105.00,2813.3397335,N,11259.4853620,E,1,19,0.8,70.4675,M,-16.713,M,,*43
$GPGSV,1,1,00,,,,,,,,,,,,,,,,*79
$BDGSV,5,1,19,143,59,185,41,148,52,342,41,153,49,320,41,142,45,231,41*60
$BDGSV,5,2,19,141,44,126,41,150,42,213,41,147,36,197,41,144,31,112,41*6D
$BDGSV,5,3,19,145,23,251,41,156,20,165,41,169,79,184,41,188,70,352,42*6F
$BDGSV,5,4,19,159,63,273,41,178,55,006,41,160,52,026,41,175,35,317,41*63
$BDGSV,5,5,19,180,33,185,41,179,26,160,41,170,24,147,41,,,,*6E
$GPGGA,000106.00,2813.3397324,N,11259.4853607,E,1,19,0.8,70.4740,M,-16.713,M,,*42
$GPGSV,1,1,00,,,,,,,,,,,,,,,,*79
$BDGSV,5,1,19,143,59,185,41,148,52,342,41,153,49,320,41,142,45,231,41*60
$BDGSV,5,2,19,141,44,126,41,150,42,213,41,147,36,197,41,144,31,112,41*6D
$BDGSV,5,3,19,145,23,251,41,156,20,165,41,169,79,184,41,188,70,352,41*6C
$BDGSV,5,4,19,159,63,273,41,178,55,006,41,160,52,026,41,175,35,317,41*63
$BDGSV,5,5,19,180,33,185,41,179,26,160,41,170,24,147,41,,,,*6E
$GPGGA,000107.00,2813.3397328,N,11259.4853600,E,1,19,0.8,70.4738,M,-16.713,M,,*47
$GPGSV,1,1,00,,,,,,,,,,,,,,,,*79
$BDGSV,5,1,19,143,59,185,41,148,52,342,41,153,49,320,41,142,45,231,41*60
$BDGSV,5,2,19,141,44,126,41,150,42,213,41,147,36,197,41,144,31,112,41*6D
$BDGSV,5,3,19,145,23,251,41,156,20,165,41,169,79,184,41,188,70,352,41*6C
$BDGSV,5,4,19,159,63,273,41,178,55,006,41,160,52,026,41,175,35,317,41*63
$BDGSV,5,5,19,180,33,185,41,179,26,160,41,170,24,147,41,,,,*6E
$GPGGA,000108.00,2813.3397331,N,11259.4853588,E,1,19,0.8,70.4766,M,-16.713,M,,*48
$GPGSV,1,1,00,,,,,,,,,,,,,,,,*79
$BDGSV,5,1,19,143,59,185,41,148,52,342,41,153,49,320,41,142,45,231,41*60
$BDGSV,5,2,19,141,44,126,41,150,42,213,41,147,36,197,41,144,31,112,41*6D
$BDGSV,5,3,19,145,23,251,41,156,20,165,41,169,79,184,41,188,70,352,41*6C
$BDGSV,5,4,19,159,63,273,41,178,55,006,41,160,52,026,41,175,35,317,41*63
$BDGSV,5,5,19,180,33,185,41,179,26,160,41,170,24,147,41,,,,*6E
$GPGGA,000109.00,2813.3397334,N,11259.4853577,E,1,19,0.8,70.4725,M,-16.713,M,,*4B
$GPGSV,1,1,00,,,,,,,,,,,,,,,,*79
$BDGSV,5,1,19,143,59,185,41,148,52,342,41,153,49,320,41,142,45,231,41*60
$BDGSV,5,2,19,141,44,126,41,150,42,213,41,147,36,197,41,144,31,112,41*6D
$BDGSV,5,3,19,145,23,251,41,156,20,165,41,169,79,184,41,188,70,352,41*6C
$BDGSV,5,4,19,159,63,273,41,178,55,006,42,160,52,026,41,175,35,317,41*60
$BDGSV,5,5,19,180,33,185,41,179,26,160,41,170,24,147,41,,,,*6E
$GPGGA,000110.00,2813.3397332,N,11259.4853589,E,1,19,0.8,70.4631,M,-16.713,M,,*40
$GPGSV,1,1,00,,,,,,,,,,,,,,,,*79
$BDGSV,5,1,19,143,59,185,42,148,52,342,42,153,49,320,41,142,45,231,41*60
$BDGSV,5,2,19,141,44,126,41,150,42,213,41,147,36,197,41,144,31,112,41*6D
$BDGSV,5,3,19,145,23,251,41,156,20,165,41,169,79,184,42,188,70,352,41*6F
$BDGSV,5,4,19,159,63,273,41,178,55,006,41,160,52,026,41,175,35,317,41*63
$BDGSV,5,5,19,180,33,185,41,179,26,160,41,170,24,147,41,,,,*6E
$GPGGA,000111.00,2813.3397335,N,11259.4853586,E,1,19,0.8,70.4619,M,-16.713,M,,*43
$GPGSV,1,1,00,,,,,,,,,,,,,,,,*79
$BDGSV,5,1,19,143,59,185,41,148,52,342,41,153,49,320,41,142,45,231,41*60
$BDGSV,5,2,19,141,44,126,41,150,42,213,41,147,36,197,41,144,31,112,41*6D
$BDGSV,5,3,19,145,23,251,41,156,20,165,41,169,79,184,41,188,70,352,41*6C
$BDGSV,5,4,19,159,63,273,41,178,55,006,41,160,52,026,41,175,35,317,41*63
$BDGSV,5,5,19,180,33,185,41,179,26,160,41,170,24,147,41,,,,*6E
$GPGGA,000112.00,2813.3397330,N,11259.4853566,E,1,19,0.8,70.4708,M,-16.713,M,,*4A
$GPGSV,1,1,00,,,,,,,,,,,,,,,,*79
$BDGSV,5,1,19,143,59,185,41,148,52,342,41,153,49,320,41,142,45,231,41*60
$BDGSV,5,2,19,141,44,126,41,150,42,213,41,147,36,197,41,144,31,112,41*6D
$BDGSV,5,3,19,145,23,251,41,156,20,165,41,169,79,184,41,188,70,352,41*6C
$BDGSV,5,4,19,159,63,273,41,178,55,006,41,160,52,026,41,175,35,317,41*63
$BDGSV,5,5,19,180,33,185,41,179,26,160,41,170,24,147,41,,,,*6E
$GPGGA,000113.00,2813.3397338,N,11259.4853546,E,1,19,0.8,70.4688,M,-16.713,M,,*48
$GPGSV,1,1,00,,,,,,,,,,,,,,,,*79
$BDGSV,5,1,19,143,59,185,41,148,52,342,41,153,49,320,41,142,45,231,41*60
$BDGSV,5,2,19,141,44,126,41,150,42,213,41,147,36,197,41,144,31,112,41*6D
$BDGSV,5,3,19,145,23,251,41,156,20,165,41,169,79,184,41,188,70,352,41*6C
$BDGSV,5,4,19,159,63,273,41,178,55,006,41,160,52,026,41,175,35,317,41*63
$BDGSV,5,5,19,180,33,185,41,179,26,160,41,170,24,147,41,,,,*6E
$GPGGA,000114.00,2813.3397344,N,11259.4853539,E,1,19,0.8,70.4626,M,-16.713,M,,*48
$GPGSV,1,1,00,,,,,,,,,,,,,,,,*79
$BDGSV,5,1,19,143,59,185,41,148,52,342,42,153,49,320,41,142,45,231,42*60
$BDGSV,5,2,19,141,44,126,41,150,42,213,41,147,36,197,41,144,31,112,41*6D
$BDGSV,5,3,19,145,23,251,41,156,20,165,41,169,79,184,41,188,70,352,41*6C
$BDGSV,5,4,19,159,63,273,41,178,55,006,41,160,52,026,41,175,35,317,41*63
$BDGSV,5,5,19,180,33,185,41,179,26,160,41,170,24,147,41,,,,*6E
$GPGGA,000115.00,2813.3397341,N,11259.4853518,E,1,19,0.8,70.4626,M,-16.713,M,,*4F
$GPGSV,1,1,00,,,,,,,,,,,,,,,,*79
$BDGSV,5,1,19,143,59,185,41,148,52,342,41,153,49,320,41,142,45,231,41*60
$BDGSV,5,2,19,141,44,126,41,150,42,213,41,147,36,197,41,144,31,112,41*6D
$BDGSV,5,3,19,145,23,251,41,156,20,165,41,169,79,184,41,188,70,352,41*6C
$BDGSV,5,4,19,159,63,273,41,178,55,006,41,160,52,026,41,175,35,317,41*63
$BDGSV,5,5,19,180,33,185,41,179,26,160,41,170,24,147,41,,,,*6E
$GPGGA,000116.00,2813.3397322,N,11259.4853479,E,1,19,0.8,70.4733,M,-16.713,M,,*4A
$GPGSV,1,1,00,,,,,,,,,,,,,,,,*79
$BDGSV,5,1,19,143,59,185,42,148,52,342,41,153,49,320,41,142,45,231,42*60
$BDGSV,5,2,19,141,44,126,41,150,42,213,41,147,36,197,41,144,31,112,41*6D
$BDGSV,5,3,19,145,23,251,42,156,20,165,41,169,79,184,41,188,70,352,41*6F
$BDGSV,5,4,19,159,63,273,41,178,55,006,41,160,52,026,41,175,35,317,42*60
$BDGSV,5,5,19,180,33,185,41,179,26,160,41,170,24,147,41,,,,*6E
$GPGGA,000117.00,2813.3397314,N,11259.4853453,E,1,19,0.8,70.4806,M,-16.713,M,,*4F
$GPGSV,1,1,00,,,,,,,,,,,,,,,,*79
$BDGSV,5,1,19,143,59,185,41,148,52,342,41,153,49,320,41,142,45,231,41*60
$BDGSV,5,2,19,141,44,126,41,150,42,213,41,147,36,197,41,144,31,112,41*6D
$BDGSV,5,3,19,145,23,251,41,156,20,165,41,169,79,184,41,188,70,352,41*6C
$BDGSV,5,4,19,159,63,273,41,178,55,006,41,160,52,026,41,175,35,317,41*63
$BDGSV,5,5,19,180,33,185,42,179,26,160,41,170,24,147,41,,,,*6D
$GPGGA,000118.00,2813.3397306,N,11259.4853442,E,1,19,0.8,70.4848,M,-16.713,M,,*49
$GPGSV,1,1,00,,,,,,,,,,,,,,,,*79
$BDGSV,5,1,19,143,59,185,41,148,52,342,41,153,49,320,41,142,45,231,41*60
$BDGSV,5,2,19,141,44,126,41,150,42,213,40,147,36,197,41,144,31,112,41*6C
$BDGSV,5,3,19,145,23,251,41,156,20,165,41,169,79,184,41,188,70,352,41*6C
$BDGSV,5,4,19,159,63,273,41,178,55,006,41,160,52,026,41,175,35,317,41*63
$BDGSV,5,5,19,180,33,185,41,179,26,160,41,170,24,147,41,,,,*6E
$GPGGA,000119.00,2813.3397304,N,11259.4853429,E,1,19,0.8,70.4868,M,-16.713,M,,*45
$GPGSV,1,1,00,,,,,,,,,,,,,,,,*79
$BDGSV,5,1,19,143,59,185,41,148,52,342,41,153,49,320,41,142,45,231,41*60
$BDGSV,5,2,19,141,44,126,41,150,42,213,41,147,36,197,41,144,31,112,41*6D
$BDGSV,5,3,19,145,23,251,41,156,20,165,42,169,79,184,41,188,70,352,41*6F
$BDGSV,5,4,19,159,63,273,41,178,55,006,41,160,52,026,41,175,35,317,41*63
$BDGSV,5,5,19,180,33,185,41,179,26,160,41,170,24,147,41,,,,*6E
$GPGGA,000120.00,2813.3397306,N,11259.4853431,E,1,19,0.8,70.4842,M,-16.713,M,,*4C
$GPGSV,1,1,00,,,,,,,,,,,,,,,,*79
$BDGSV,5,1,19,143,59,185,42,148,52,342,41,153,49,320,41,142,45,231,41*63
$BDGSV,5,2,19,141,44,126,41,150,42,213,41,147,36,197,41,144,31,112,41*6D
$BDGSV,5,3,19,145,23,251,41,156,20,165,41,169,79,184,41,188,70,352,41*6C
$BDGSV,5,4,19,159,63,273,41,178,55,006,41,160,52,026,41,175,35,317,41*63
$BDGSV,5,5,19,180,33,185,41,179,26,160,41,170,24,147,41,,,,*6E
$GPGGA,000121.00,2813.3397306,N,11259.4853449,E,1,19,0.8,70.4767,M,-16.713,M,,*4A
$GPGSV,1,1,00,,,,,,,,,,,,,,,,*79
$BDGSV,5,1,19,143,59,185,41,148,52,342,41,153,49,320,41,142,45,231,42*63
$BDGSV,5,2,19,141,44,126,41,150,42,213,41,147,36,197,41,144,31,112,41*6D
$BDGSV,5,3,19,145,23,251,41,156,20,165,41,169,79,184,41,188,70,352,41*6C
$BDGSV,5,4,19,159,63,273,41,178,55,006,41,160,52,026,41,175,35,317,41*63
$BDGSV,5,5,19,180,33,185,41,179,26,160,41,170,24,147,42,,,,*6D
$GPGGA,000122.00,2813.3397313,N,11259.4853446,E,1,19,0.8,70.4730,M,-16.713,M,,*40
$GPGSV,1,1,00,,,,,,,,,,,,,,,,*79
$BDGSV,5,1,19,143,59,185,41,148,52,342,41,153,49,320,41,142,45,231,41*60
$BDGSV,5,2,19,141,44,126,41,150,42,213,41,147,36,197,41,144,31,112,41*6D
$BDGSV,5,3,19,145,23,251,41,156,20,165,41,169,79,184,41,188,70,352,41*6C
$BDGSV,5,4,19,159,63,273,41,178,55,006,41,160,52,026,41,175,35,317,41*63
$BDGSV,5,5,19,180,33,185,41,179,26,160,41,170,24,147,41,,,,*6E
$GPGGA,000123.00,2813.3397309,N,11259.4853423,E,1,19,0.8,70.4800,M,-16.713,M,,*45
$GPGSV,1,1,00,,,,,,,,,,,,,,,,*79
$BDGSV,5,1,19,143,59,185,41,148,52,342,41,153,49,320,41,142,45,231,41*60
$BDGSV,5,2,19,141,44,126,41,150,42,213,41,147,36,197,41,144,31,112,41*6D
$BDGSV,5,3,19,145,23,251,41,156,20,165,41,169,79,184,41,188,70,352,42*6F
$BDGSV,5,4,19,159,63,273,41,178,55,006,41,160,52,026,41,175,35,317,41*63
$BDGSV,5,5,19,180,33,185,41,179,26,160,41,170,24,147,41,,,,*6E
$GPGGA,000124.00,2813.3397311,N,11259.4853420,E,1,19,0.8,70.4806,M,-16.713,M,,*4E
$GPGSV,1,1,00,,,,,,,,,,,,,,,,*79
$BDGSV,5,1,19,143,59,185,41,148,52,342,41,153,49,320,41,142,45,231,41*60
$BDGSV,5,2,19,141,44,126,41,150,42,213,41,147,36,197,41,144,31,112,41*6D
$BDGSV,5,3,19,145,23,251,41,156,20,165,41,169,79,184,41,188,70,352,41*6C
$BDGSV,5,4,19,159,63,273,41,178,55,006,41,160,52,026,41,175,35,317,41*63
$BDGSV,5,5,19,180,33,185,41,179,26,160,41,170,24,147,41,,,,*6E
$GPGGA,000125.00,2813.3397322,N,11259.4853414,E,1,19,0.8,70.4723,M,-16.713,M,,*40
$GPGSV,1,1,00,,,,,,,,,,,,,,,,*79
$BDGSV,5,1,19,143,59,185,41,148,52,342,41,153,49,320,41,142,45,231,41*60
$BDGSV,5,2,19,141,44,126,41,150,42,213,41,147,36,197,41,144,31,112,41*6D
$BDGSV,5,3,19,145,23,251,41,156,20,165,41,169,79,184,41,188,70,352,41*6C
$BDGSV,5,4,19,159,63,273,41,178,55,006,41,160,52,026,41,175,35,317,41*63
$BDGSV,5,5,19,180,33,185,41,179,26,160,41,170,24,147,41,,,,*6E
$GPGGA,000126.00,2813.3397329,N,11259.4853399,E,1,19,0.8,70.4734,M,-16.713,M,,*4C
$GPGSV,1,1,00,,,,,,,,,,,,,,,,*79
$BDGSV,5,1,19,143,59,185,41,148,52,342,41,153,49,320,41,142,45,231,41*60
$BDGSV,5,2,19,141,44,126,41,150,42,213,41,147,36,197,41,144,31,112,41*6D
$BDGSV,5,3,19,145,23,251,41,156,20,165,41,169,79,184,41,188,70,352,41*6C
$BDGSV,5,4,19,159,63,273,41,178,55,006,41,160,52,026,41,175,35,317,41*63
$BDGSV,5,5,19,180,33,185,41,179,26,160,41,170,24,147,41,,,,*6E
$GPGGA,000127.00,2813.3397316,N,11259.4853378,E,1,19,0.8,70.4793,M,-16.713,M,,*43
$GPGSV,1,1,00,,,,,,,,,,,,,,,,*79
$BDGSV,5,1,19,143,59,185,41,148,52,342,41,153,49,320,41,142,45,231,41*60
$BDGSV,5,2,19,141,44,126,41,150,42,213,41,147,36,197,41,144,31,112,41*6D
$BDGSV,5,3,19,145,23,251,41,156,20,165,41,169,79,184,41,188,70,352,41*6C
$BDGSV,5,4,19,159,63,273,41,178,55,006,41,160,52,026,41,175,35,317,41*63
$BDGSV,5,5,19,180,33,185,41,179,26,160,41,170,24,147,41,,,,*6E
$GPGGA,000128.00,2813.3397315,N,11259.4853366,E,1,19,0.8,70.4802,M,-16.713,M,,*47
$GPGSV,1,1,00,,,,,,,,,,,,,,,,*79
$BDGSV,5,1,19,143,59,185,41,148,52,342,41,153,49,320,41,142,45,231,41*60
$BDGSV,5,2,19,141,44,126,41,150,42,213,41,147,36,197,41,144,31,112,41*6D
$BDGSV,5,3,19,145,23,251,41,156,20,165,41,169,79,184,41,188,70,352,41*6C
$BDGSV,5,4,19,159,63,273,41,178,55,006,41,160,52,026,41,175,35,317,41*63
$BDGSV,5,5,19,180,33,185,41,179,26,160,41,170,24,147,41,,,,*6E
$GPGGA,000129.00,2813.3397320,N,11259.4853367,E,1,19,0.8,70.4765,M,-16.713,M,,*4F
$GPGSV,1,1,00,,,,,,,,,,,,,,,,*79
$BDGSV,5,1,19,143,59,185,41,148,52,342,41,153,49,320,41,142,45,231,41*60
$BDGSV,5,2,19,141,44,126,41,150,42,213,41,147,36,197,41,144,31,112,41*6D
$BDGSV,5,3,19,145,23,251,41,156,20,165,41,169,79,184,41,188,70,352,41*6C
$BDGSV,5,4,19,159,63,273,41,178,55,006,41,160,52,026,41,175,35,317,41*63
$BDGSV,5,5,19,180,33,185,41,179,26,160,41,170,24,147,41,,,,*6E
$GPGGA,000130.00,2813.3397313,N,11259.4853358,E,1,19,0.8,70.4833,M,-16.713,M,,*47
$GPGSV,1,1,00,,,,,,,,,,,,,,,,*79
$BDGSV,5,1,19,143,59,185,41,148,52,342,41,153,49,320,41,142,45,231,41*60
$BDGSV,5,2,19,141,44,126,41,150,42,213,41,147,36,197,41,144,31,112,41*6D
$BDGSV,5,3,19,145,23,251,41,156,20,165,41,169,79,184,41,188,70,352,41*6C
$BDGSV,5,4,19,159,63,273,41,178,55,006,41,160,52,026,41,175,35,317,41*63
$BDGSV,5,5,19,180,33,185,41,179,26,160,40,170,24,147,41,,,,*6F
$GPGGA,000131.00,2813.3397320,N,11259.4853335,E,1,19,0.8,70.4826,M,-16.713,M,,*49
$GPGSV,1,1,00,,,,,,,,,,,,,,,,*79
$BDGSV,5,1,19,143,59,185,41,148,52,342,41,153,49,320,40,142,45,231,41*61
$BDGSV,5,2,19,141,44,126,41,150,42,213,41,147,36,197,41,144,31,112,41*6D
$BDGSV,5,3,19,145,23,251,41,156,20,165,41,169,79,184,41,188,70,352,41*6C
$BDGSV,5,4,19,159,63,273,41,178,55,006,41,160,52,026,41,175,35,317,41*63
$BDGSV,5,5,19,180,33,185,41,179,26,160,41,170,24,147,41,,,,*6E
$GPGGA,000132.00,2813.3397324,N,11259.4853347,E,1,19,0.8,70.4763,M,-16.713,M,,*45
$GPGSV,1,1,00,,,,,,,,,,,,,,,,*79
$BDGSV,5,1,19,143,59,185,41,148,52,342,41,153,49,320,41,142,45,231,41*60
$BDGSV,5,2,19,141,44,126,41,150,42,213,41,147,36,197,41,144,31,112,41*6D
$BDGSV,5,3,19,145,23,251,41,156,20,165,41,169,79,184,41,188,70,352,41*6C
$BDGSV,5,4,19,159,63,274,41,178,55,006,41,160,52,026,41,175,35,317,41*64
$BDGSV,5,5,19,180,33,185,41,179,26,160,41,170,24,147,41,,,,*6E
$GPGGA,000133.00,2813.3397326,N,11259.4853344,E,1,19,0.8,70.4710,M,-16.713,M,,*41
$GPGSV,1,1,00,,,,,,,,,,,,,,,,*79
$BDGSV,5,1,19,143,59,185,41,148,51,342,41,153,49,320,41,142,45,231,41*63
$BDGSV,5,2,19,141,44,126,41,150,42,213,41,147,36,197,41,144,31,112,41*6D
$BDGSV,5,3,19,145,23,251,41,156,20,165,41,169,79,184,41,188,70,352,41*6C
$BDGSV,5,4,19,159,63,274,41,178,55,006,41,160,52,026,41,175,35,317,41*64
$BDGSV,5,5,19,180,33,185,41,179,26,160,41,170,24,147,41,,,,*6E
$GPGGA,000134.00,2813.3397327,N,11259.4853329,E,1,19,0.8,70.4668,M,-16.713,M,,*42
$GPGSV,1,1,00,,,,,,,,,,,,,,,,*79
$BDGSV,5,1,19,143,59,185,41,148,51,342,41,153,49,320,41,142,45,231,41*63
$BDGSV,5,2,19,141,44,126,41,150,42,213,41,147,36,197,41,144,31,112,41*6D
$BDGSV,5,3,19,145,23,251,41,156,20,165,41,169,79,184,41,188,70,352,41*6C
$BDGSV,5,4,19,159,63,274,41,178,55,006,41,160,52,026,41,175,35,317,41*64
$BDGSV,5,5,19,180,33,185,41,179,26,160,41,170,24,147,41,,,,*6E
$GPGGA,000135.00,2813.3397326,N,11259.4853331,E,1,19,0.8,70.4593,M,-16.713,M,,*4C
$GPGSV,1,1,00,,,,,,,,,,,,,,,,*79
$BDGSV,5,1,19,143,59,185,41,148,51,342,41,153,49,320,41,142,45,231,41*63
$BDGSV,5,2,19,141,44,126,41,150,42,213,41,147,36,197,41,144,31,112,41*6D
$BDGSV,5,3,19,145,23,251,41,156,20,165,41,169,79,184,41,188,70,352,41*6C
$BDGSV,5,4,19,159,63,274,41,178,55,006,41,160,52,026,41,175,35,317,41*64
$BDGSV,5,5,19,180,33,185,41,179,26,160,41,170,24,147,41,,,,*6E
$GPGGA,000136.00,2813.3397320,N,11259.4853346,E,1,19,0.8,70.4520,M,-16.713,M,,*41
$GPGSV,1,1,00,,,,,,,,,,,,,,,,*79
$BDGSV,5,1,19,143,59,185,41,148,51,342,41,153,49,320,41,142,45,231,41*63
$BDGSV,5,2,19,141,44,126,41,150,42,213,41,147,36,197,41,144,31,112,41*6D
$BDGSV,5,3,19,145,23,251,41,156,20,165,41,169,79,184,41,188,70,352,41*6C
$BDGSV,5,4,19,159,63,274,41,178,55,006,41,160,52,026,41,175,35,317,41*64
$BDGSV,5,5,19,180,33,185,41,179,26,160,41,170,24,147,41,,,,*6E
$GPGGA,000137.00,2813.3397322,N,11259.4853343,E,1,19,0.8,70.4439,M,-16.713,M,,*4E
$GPGSV,1,1,00,,,,,,,,,,,,,,,,*79
$BDGSV,5,1,19,143,59,185,41,148,51,342,41,153,49,320,41,142,45,231,41*63
$BDGSV,5,2,19,141,44,126,40,150,42,213,41,147,36,197,41,144,31,112,41*6C
$BDGSV,5,3,19,145,23,251,41,156,20,165,41,169,79,184,41,188,70,352,41*6C
$BDGSV,5,4,19,159,63,274,41,178,55,006,41,160,52,026,41,175,35,317,41*64
$BDGSV,5,5,19,180,33,185,41,179,26,160,41,170,24,147,41,,,,*6E
$GPGGA,000138.00,2813.3397313,N,11259.4853329,E,1,19,0.8,70.4459,M,-16.713,M,,*49
$GPGSV,1,1,00,,,,,,,,,,,,,,,,*79
$BDGSV,5,1,19,143,59,185,41,148,51,342,41,153,49,320,41,142,45,231,41*63
$BDGSV,5,2,19,141,44,126,41,150,42,213,41,147,36,197,42,144,31,112,41*6E
$BDGSV,5,3,19,145,23,251,41,156,20,165,41,169,79,184,41,188,70,352,41*6C
$BDGSV,5,4,19,159,63,274,41,178,55,006,41,160,52,026,41,175,35,317,41*64
$BDGSV,5,5,19,180,33,185,41,179,26,160,41,170,24,147,41,,,,*6E
$GPGGA,000139.00,2813.3397317,N,11259.4853336,E,1,19,0.8,70.4376,M,-16.713,M,,*48
$GPGSV,1,1,00,,,,,,,,,,,,,,,,*79
$BDGSV,5,1,19,143,59,185,41,148,51,342,41,153,49,320,41,142,45,231,41*63
$BDGSV,5,2,19,141,44,126,41,150,42,213,41,147,36,197,41,144,31,112,41*6D
$BDGSV,5,3,19,145,23,251,41,156,20,165,41,169,79,184,41,188,70,352,41*6C
$BDGSV,5,4,19,159,63,274,41,178,55,006,41,160,52,026,41,175,35,317,41*64
$BDGSV,5,5,19,180,33,185,41,179,26,160,41,170,24,147,41,,,,*6E
$GPGGA,000140.00,2813.3397313,N,11259.4853348,E,1,19,0.8,70.4304,M,-16.713,M,,*4E
$GPGSV,1,1,00,,,,,,,,,,,,,,,,*79
$BDGSV,5,1,19,143,59,185,42,148,51,342,41,153,49,320,41,142,45,231,41*60
$BDGSV,5,2,19,141,44,126,41,150,42,213,41,147,36,197,41,144,31,112,41*6D
$BDGSV,5,3,19,145,23,251,41,156,20,165,41,169,79,184,41,188,70,352,41*6C
$BDGSV,5,4,19,159,63,274,41,178,55,006,41,160,52,026,41,175,35,317,41*64
$BDGSV,5,5,19,180,33,185,41,179,26,160,41,170,24,147,41,,,,*6E
$GPGGA,000141.00,2813.3397319,N,11259.4853354,E,1,19,0.8,70.4236,M,-16.713,M,,*48
$GPGSV,1,1,00,,,,,,,,,,,,,,,,*79
$BDGSV,5,1,19,143,59,185,41,148,51,342,41,153,49,320,41,142,45,231,41*63
$BDGSV,5,2,19,141,44,126,41,150,42,213,41,147,36,197,41,144,31,112,41*6D
$BDGSV,5,3,19,145,23,251,41,156,20,165,41,169,79,184,41,188,70,352,41*6C
$BDGSV,5,4,19,159,63,274,41,178,55,006,41,160,52,026,41,175,35,317,41*64
$BDGSV,5,5,19,180,33,185,41,179,26,160,41,170,24,147,41,,,,*6E
$GPGGA,000142.00,2813.3397316,N,11259.4853353,E,1,19,0.8,70.4292,M,-16.713,M,,*4D
$GPGSV,1,1,00,,,,,,,,,,,,,,,,*79
$BDGSV,5,1,19,143,59,185,41,148,51,342,41,153,49,320,41,142,45,231,41*63
$BDGSV,5,2,19,141,44,126,41,150,42,213,41,147,36,197,41,144,31,112,41*6D
$BDGSV,5,3,19,145,23,251,41,156,20,165,42,169,79,184,41,188,70,352,41*6F
$BDGSV,5,4,19,159,63,274,41,178,55,006,41,160,52,026,41,175,35,317,41*64
$BDGSV,5,5,19,180,33,185,41,179,26,160,41,170,24,147,41,,,,*6E
$GPGGA,000143.00,2813.3397314,N,11259.4853358,E,1,19,0.8,70.4255,M,-16.713,M,,*4E
$GPGSV,1,1,00,,,,,,,,,,,,,,,,*79
$BDGSV,5,1,19,143,59,185,41,148,51,342,41,153,49,320,41,142,45,231,41*63
$BDGSV,5,2,19,141,44,126,41,150,42,213,41,147,36,197,41,144,31,112,41*6D
$BDGSV,5,3,19,145,23,251,41,156,20,165,41,169,79,184,41,188,70,352,42*6F
$BDGSV,5,4,19,159,63,274,41,178,55,006,41,160,52,026,41,175,35,317,41*64
$BDGSV,5,5,19,180,33,185,41,179,26,160,41,170,24,147,41,,,,*6E
$GPGGA,000144.00,2813.3397308,N,11259.4853365,E,1,19,0.8,70.4154,M,-16.713,M,,*48
$GPGSV,1,1,00,,,,,,,,,,,,,,,,*79
$BDGSV,5,1,19,143,59,185,41,148,51,342,40,153,49,320,41,142,45,231,41*62
$BDGSV,5,2,19,141,44,126,41,150,42,213,41,147,36,197,41,144,31,112,41*6D
$BDGSV,5,3,19,145,23,251,41,156,20,165,41,169,79,184,41,188,70,352,41*6C
$BDGSV,5,4,19,159,63,274,41,178,55,006,41,160,52,026,41,175,35,317,41*64
$BDGSV,5,5,19,180,33,185,41,179,26,160,41,170,24,147,41,,,,*6E
$GPGGA,000145.00,2813.3397312,N,11259.4853363,E,1,19,0.8,70.4048,M,-16.713,M,,*48
$GPGSV,1,1,00,,,,,,,,,,,,,,,,*79
$BDGSV,5,1,19,143,59,185,41,148,51,342,41,153,49,320,41,142,45,231,41*63
$BDGSV,5,2,19,141,44,126,41,150,42,213,41,147,36,197,41,144,31,112,41*6D
$BDGSV,5,3,19,145,23,251,41,156,20,165,41,169,79,184,41,188,70,353,41*6D
$BDGSV,5,4,19,159,63,274,41,178,55,006,41,160,52,026,41,175,35,317,41*64
$BDGSV,5,5,19,180,33,185,41,179,26,160,41,170,24,147,41,,,,*6E
$GPGGA,000146.00,2813.3397315,N,11259.4853357,E,1,19,0.8,70.4021,M,-16.713,M,,*44
$GPGSV,1,1,00,,,,,,,,,,,,,,,,*79
$BDGSV,5,1,19,143,59,185,41,148,51,342,41,153,49,320,41,142,45,231,41*63
$BDGSV,5,2,19,141,44,126,41,150,42,213,41,147,36,197,41,144,31,112,41*6D
$BDGSV,5,3,19,145,23,251,41,156,20,165,41,169,79,184,41,188,70,353,41*6D
$BDGSV,5,4,19,159,63,274,41,178,55,006,41,160,52,026,41,175,35,317,41*64
$BDGSV,5,5,19,180,33,185,41,179,26,160,41,170,24,147,41,,,,*6E
$GPGGA,000147.00,2813.3397323,N,11259.4853338,E,1,19,0.8,70.3993,M,-16.713,M,,*4E
$GPGSV,1,1,00,,,,,,,,,,,,,,,,*79
$BDGSV,5,1,19,143,59,185,41,148,51,342,40,153,49,320,41,142,45,231,41*62
$BDGSV,5,2,19,141,44,126,41,150,42,213,41,147,36,197,41,144,31,112,41*6D
$BDGSV,5,3,19,145,23,251,40,156,20,165,41,169,79,184,41,188,70,353,41*6C
$BDGSV,5,4,19,159,63,274,41,178,55,006,41,160,52,026,41,175,35,317,41*64
$BDGSV,5,5,19,180,33,185,41,179,26,160,41,170,24,147,41,,,,*6E
$GPGGA,000148.00,2813.3397318,N,11259.4853326,E,1,19,0.8,70.4052,M,-16.713,M,,*45
$GPGSV,1,1,00,,,,,,,,,,,,,,,,*79
$BDGSV,5,1,19,143,59,185,41,148,51,342,41,153,49,320,41,142,45,231,41*63
$BDGSV,5,2,19,141,44,126,41,150,42,213,41,147,36,197,41,144,31,112,41*6D
$BDGSV,5,3,19,145,23,251,41,156,20,165,41,169,79,184,42,188,70,353,41*6E
$BDGSV,5,4,19,159,63,274,41,178,55,006,41,160,52,026,41,175,35,317,41*64
$BDGSV,5,5,19,180,33,185,41,179,26,160,41,170,24,147,41,,,,*6E
$GPGGA,000149.00,2813.3397321,N,11259.4853318,E,1,19,0.8,70.3991,M,-16.713,M,,*42
$GPGSV,1,1,00,,,,,,,,,,,,,,,,*79
$BDGSV,5,1,19,143,59,185,41,148,51,342,41,153,49,320,41,142,45,231,41*63
$BDGSV,5,2,19,141,44,126,41,150,42,213,41,147,36,197,41,144,31,112,41*6D
$BDGSV,5,3,19,145,23,251,41,156,20,165,41,169,79,184,41,188,70,353,41*6D
$BDGSV,5,4,19,159,63,274,41,178,55,006,41,160,52,026,41,175,35,317,41*64
$BDGSV,5,5,19,180,33,185,41,179,26,160,41,170,24,147,41,,,,*6E
$GPGGA,000150.00,2813.3397317,N,11259.4853332,E,1,19,0.8,70.3934,M,-16.713,M,,*48
$GPGSV,1,1,00,,,,,,,,,,,,,,,,*79
$BDGSV,5,1,19,143,59,185,42,148,51,342,41,153,49,320,41,142,45,231,41*60
$BDGSV,5,2,19,141,44,126,41,150,42,213,41,147,36,197,42,144,31,112,42*6D
$BDGSV,5,3,19,145,23,251,41,156,20,165,41,169,79,184,42,188,70,353,41*6E
$BDGSV,5,4,19,159,63,274,41,178,55,006,41,160,52,026,41,175,35,317,41*64
$BDGSV,5,5,19,180,33,185,41,179,26,160,41,170,24,147,41,,,,*6E
$GPGGA,000151.00,2813.3397323,N,11259.4853336,E,1,19,0.8,70.3847,M,-16.713,M,,*4F
$GPGSV,1,1,00,,,,,,,,,,,,,,,,*79
$BDGSV,5,1,19,143,59,185,41,148,51,342,41,153,49,320,41,142,45,231,41*63
$BDGSV,5,2,19,141,44,126,41,150,42,213,41,147,36,197,42,144,31,112,41*6E
$BDGSV,5,3,19,145,23,251,41,156,20,165,41,169,79,184,41,188,70,353,42*6E
$BDGSV,5,4,19,159,63,274,41,178,55,006,41,160,52,026,41,175,35,317,41*64
$BDGSV,5,5,19,180,33,185,41,179,26,160,41,170,24,147,41,,,,*6E
$GPGGA,000152.00,2813.3397317,N,11259.4853305,E,1,19,0.8,70.3853,M,-16.713,M,,*4E
$GPGSV,1,1,00,,,,,,,,,,,,,,,,*79
$BDGSV,5,1,19,143,59,185,41,148,51,342,41,153,49,320,41,142,45,231,41*63
$BDGSV,5,2,19,141,44,126,41,150,42,213,41,147,36,197,41,144,31,112,41*6D
$BDGSV,5,3,19,145,23,251,41,156,20,165,41,169,79,184,41,188,70,353,41*6D
$BDGSV,5,4,19,159,63,274,42,178,55,006,41,160,52,026,41,175,35,317,41*67
$BDGSV,5,5,19,180,33,185,41,179,26,160,42,170,24,147,41,,,,*6D
$GPGGA,000153.00,2813.3397313,N,11259.4853295,E,1,19,0.8,70.3876,M,-16.713,M,,*44
$GPGSV,1,1,00,,,,,,,,,,,,,,,,*79
$BDGSV,5,1,19,143,59,185,41,148,51,342,41,153,49,320,41,142,45,231,41*63
$BDGSV,5,2,19,141,44,126,41,150,42,213,41,147,36,197,41,144,31,112,41*6D
$BDGSV,5,3,19,145,23,251,41,156,20,165,41,169,79,184,41,188,70,353,41*6D
$BDGSV,5,4,19,159,63,274,41,178,55,006,41,160,52,026,41,175,35,317,41*64
$BDGSV,5,5,19,180,33,185,41,179,26,160,41,170,24,147,41,,,,*6E
$GPGGA,000154.00,2813.3397309,N,11259.4853304,E,1,19,0.8,70.3809,M,-16.713,M,,*49
$GPGSV,1,1,00,,,,,,,,,,,,,,,,*79
$BDGSV,5,1,19,143,59,185,41,148,51,342,41,153,49,320,41,142,45,231,41*63
$BDGSV,5,2,19,141,44,126,41,150,42,213,41,147,36,197,42,144,31,112,41*6E
$BDGSV,5,3,19,145,23,251,41,156,20,165,41,169,79,184,42,188,70,353,42*6D
$BDGSV,5,4,19,159,63,274,42,178,55,006,41,160,52,026,41,175,35,317,41*67
$BDGSV,5,5,19,180,33,185,41,179,26,160,41,170,24,147,42,,,,*6D
$GPGGA,000155.00,2813.3397308,N,11259.4853278,E,1,19,0.8,70.3830,M,-16.713,M,,*49
$GPGSV,1,1,00,,,,,,,,,,,,,,,,*79
$BDGSV,5,1,19,143,59,185,41,148,51,342,41,153,49,320,41,142,45,231,41*63
$BDGSV,5,2,19,141,44,126,41,150,42,213,41,147,36,197,41,144,31,112,41*6D
$BDGSV,5,3,19,145,23,251,41,156,20,165,41,169,79,184,41,188,70,353,41*6D
$BDGSV,5,4,19,159,63,274,41,178,55,006,41,160,52,026,41,175,35,317,41*64
$BDGSV,5,5,19,180,33,185,41,179,26,160,41,170,24,147,41,,,,*6E
$GPGGA,000156.00,2813.3397299,N,11259.4853248,E,1,19,0.8,70.3937,M,-16.713,M,,*46
$GPGSV,1,1,00,,,,,,,,,,,,,,,,*79
$BDGSV,5,1,19,143,59,185,41,148,51,342,41,153,49,320,41,142,45,231,41*63
$BDGSV,5,2,19,141,44,126,41,150,42,213,41,147,36,197,41,144,31,112,41*6D
$BDGSV,5,3,19,145,23,251,41,156,20,165,41,169,79,184,41,188,70,353,41*6D
$BDGSV,5,4,19,159,63,274,41,178,55,006,41,160,52,026,41,175,35,317,41*64
$BDGSV,5,5,19,180,33,185,41,179,26,160,41,170,24,147,41,,,,*6E
$GPGGA,000157.00,2813.3397292,N,11259.4853240,E,1,19,0.8,70.3984,M,-16.713,M,,*4C
$GPGSV,1,1,00,,,,,,,,,,,,,,,,*79
$BDGSV,5,1,19,143,59,185,41,148,51,342,41,153,49,320,41,142,45,231,41*63
$BDGSV,5,2,19,141,44,126,41,150,42,213,41,147,36,197,41,144,31,112,41*6D
$BDGSV,5,3,19,145,23,251,41,156,20,165,41,169,79,184,41,188,70,353,41*6D
$BDGSV,5,4,19,159,63,274,41,178,55,006,41,160,52,026,41,175,35,317,41*64
$BDGSV,5,5,19,180,33,185,41,179,26,160,41,170,24,147,41,,,,*6E
$GPGGA,000158.00,2813.3397296,N,11259.4853238,E,1,19,0.8,70.3996,M,-16.713,M,,*4B
$GPGSV,1,1,00,,,,,,,,,,,,,,,,*79
$BDGSV,5,1,19,143,59,185,41,148,51,342,41,153,49,320,41,142,45,231,41*63
$BDGSV,5,2,19,141,44,126,42,150,42,213,41,147,36,197,41,144,31,112,41*6E
$BDGSV,5,3,19,145,23,251,41,156,20,165,41,169,79,184,41,188,70,353,41*6D
$BDGSV,5,4,19,159,63,274,41,178,55,006,41,160,52,026,41,175,35,317,41*64
$BDGSV,5,5,19,180,33,185,42,179,26,160,42,170,24,147,41,,,,*6E
$GPGGA,000159.00,2813.3397299,N,11259.4853221,E,1,19,0.8,70.3993,M,-16.713,M,,*48
$GPGSV,1,1,00,,,,,,,,,,,,,,,,*79
$BDGSV,5,1,19,143,59,185,41,148,51,342,41,153,49,320,41,142,45,231,41*63
$BDGSV,5,2,19,141,44,126,41,150,42,213,41,147,36,197,41,144,31,112,41*6D
$BDGSV,5,3,19,145,23,251,41,156,20,165,41,169,79,184,41,188,70,353,41*6D
$BDGSV,5,4,19,159,63,274,41,178,55,006,41,160,52,026,41,175,35,317,41*64
$BDGSV,5,5,19,180,33,185,41,179,26,160,41,170,24,147,41,,,,*6E
$GPGGA,000200.00,2813.3397298,N,11259.4853194,E,1,19,0.8,70.4052,M,-16.713,M,,*48
$GPGSV,1,1,00,,,,,,,,,,,,,,,,*79
$BDGSV,5,1,19,143,59,185,41,148,51,342,41,153,49,320,41,142,45,231,41*63
$BDGSV,5,2,19,141,44,126,41,150,42,213,41,147,36,197,41,144,31,112,41*6D
$BDGSV,5,3,19,145,23,251,41,156,20,165,41,169,79,184,41,188,70,353,41*6D
$BDGSV,5,4,19,159,63,274,41,178,55,006,41,160,52,026,41,175,35,317,41*64
$BDGSV,5,5,19,180,33,185,41,179,26,160,41,170,24,147,41,,,,*6E
$GPGGA,000201.00,2813.3397300,N,11259.4853187,E,1,19,0.8,70.4081,M,-16.713,M,,*45
$GPGSV,1,1,00,,,,,,,,,,,,,,,,*79
$BDGSV,5,1,19,143,59,185,41,148,51,342,41,153,49,320,41,142,45,231,41*63
$BDGSV,5,2,19,141,44,126,41,150,42,213,42,147,36,197,41,144,31,112,41*6E
$BDGSV,5,3,19,145,23,251,41,156,20,165,41,169,79,184,41,188,70,353,41*6D
$BDGSV,5,4,19,159,63,274,41,178,55,006,41,160,52,026,41,175,35,317,41*64
$BDGSV,5,5,19,180,33,185,41,179,26,160,41,170,24,147,41,,,,*6E
$GPGGA,000202.00,2813.3397299,N,11259.4853175,E,1,19,0.8,70.4029,M,-16.713,M,,*48
$GPGSV,1,1,00,,,,,,,,,,,,,,,,*79
$BDGSV,5,1,19,143,59,185,41,148,51,342,41,153,49,320,41,142,45,231,41*63
$BDGSV,5,2,19,141,44,126,41,150,42,213,41,147,36,197,41,144,31,112,41*6D
$BDGSV,5,3,19,145,23,251,41,156,20,165,41,169,79,184,41,188,70,353,41*6D
$BDGSV,5,4,19,159,63,274,41,178,55,006,41,160,52,026,41,175,35,317,41*64
$BDGSV,5,5,19,180,33,185,41,179,26,160,41,170,24,147,41,,,,*6E
$GPGGA,000203.00,2813.3397297,N,11259.4853157,E,1,19,0.8,70.4043,M,-16.713,M,,*4B
$GPGSV,1,1,00,,,,,,,,,,,,,,,,*79
$BDGSV,5,1,19,143,59,185,41,148,51,342,41,153,49,320,41,142,45,231,41*63
$BDGSV,5,2,19,141,44,126,41,150,42,213,41,147,36,197,41,144,31,112,41*6D
$BDGSV,5,3,19,145,23,251,41,156,20,165,41,169,79,184,41,188,70,353,41*6D
$BDGSV,5,4,19,159,63,274,41,178,55,006,41,160,52,026,41,175,35,317,41*64
$BDGSV,5,5,19,180,33,185,41,179,26,160,41,170,24,147,41,,,,*6E
$GPGGA,000204.00,2813.3397282,N,11259.4853131,E,1,19,0.8,70.4104,M,-16.713,M,,*4A
$GPGSV,1,1,00,,,,,,,,,,,,,,,,*79
$BDGSV,5,1,19,143,59,185,41,148,51,342,41,153,49,320,41,142,45,231,41*63
$BDGSV,5,2,19,141,44,126,41,150,42,213,41,147,36,197,41,144,31,112,41*6D
$BDGSV,5,3,19,145,23,251,41,156,20,165,42,169,79,184,41,188,70,353,41*6E
$BDGSV,5,4,19,159,63,274,41,178,55,006,41,160,52,026,41,175,35,317,41*64
$BDGSV,5,5,19,180,33,185,41,179,26,160,41,170,24,147,41,,,,*6E
$GPGGA,000205.00,2813.3397270,N,11259.4853095,E,1,19,0.8,70.4177,M,-16.713,M,,*4D
$GPGSV,1,1,00,,,,,,,,,,,,,,,,*79
$BDGSV,5,1,19,143,59,185,41,148,51,342,41,153,49,320,41,142,45,231,41*63
$BDGSV,5,2,19,141,44,126,41,150,42,213,41,147,36,197,41,144,31,112,41*6D
$BDGSV,5,3,19,145,23,251,41,156,20,165,41,169,79,184,41,188,70,353,41*6D
$BDGSV,5,4,19,159,63,274,41,178,55,006,41,160,52,026,41,175,35,317,41*64
$BDGSV,5,5,19,180,33,185,41,179,26,160,41,170,24,147,41,,,,*6E
$GPGGA,000206.00,2813.3397274,N,11259.4853098,E,1,19,0.8,70.4138,M,-16.713,M,,*4C
$GPGSV,1,1,00,,,,,,,,,,,,,,,,*79
$BDGSV,5,1,19,143,59,185,41,148,51,342,41,153,49,320,41,142,45,231,41*63
$BDGSV,5,2,19,141,44,126,41,150,42,213,41,147,36,197,41,144,31,112,41*6D
$BDGSV,5,3,19,145,23,251,41,156,20,165,42,169,79,184,41,188,70,353,41*6E
$BDGSV,5,4,19,159,63,274,41,178,55,006,42,160,52,026,41,175,35,317,41*67
$BDGSV,5,5,19,180,32,185,41,179,26,160,41,170,24,147,42,,,,*6C
$GPGGA,000207.00,2813.3397269,N,11259.4853081,E,1,19,0.8,70.4183,M,-16.713,M,,*49
$GPGSV,1,1,00,,,,,,,,,,,,,,,,*79
$BDGSV,5,1,19,143,59,185,41,148,51,342,42,153,49,320,41,142,45,231,41*60
$BDGSV,5,2,19,141,44,126,41,150,42,213,41,147,36,197,41,144,31,112,41*6D
$BDGSV,5,3,19,145,23,251,41,156,20,165,41,169,79,184,41,188,70,353,41*6D
$BDGSV,5,4,19,159,63,274,41,178,55,006,41,160,52,026,41,175,35,317,41*64
$BDGSV,5,5,19,180,32,185,41,179,26,160,41,170,24,147,41,,,,*6F
$GPGGA,000208.00,2813.3397257,N,11259.4853060,E,1,19,0.8,70.4265,M,-16.713,M,,*4F
$GPGSV,1,1,00,,,,,,,,,,,,,,,,*79
$BDGSV,5,1,19,143,59,185,41,148,51,342,44,153,49,320,41,142,45,231,41*66
$BDGSV,5,2,19,141,44,126,41,150,42,213,41,147,36,197,41,144,31,112,41*6D
$BDGSV,5,3,19,145,23,251,41,156,20,165,41,169,79,184,41,188,70,353,41*6D
$BDGSV,5,4,19,159,63,274,42,178,55,006,41,160,52,026,41,175,35,317,41*67
$BDGSV,5,5,19,180,32,185,41,179,26,160,41,170,24,147,41,,,,*6F
$GPGGA,000209.00,2813.3397262,N,11259.4853040,E,1,19,0.8,70.4294,M,-16.713,M,,*44
$GPGSV,1,1,00,,,,,,,,,,,,,,,,*79
$BDGSV,5,1,19,143,59,185,41,148,51,342,44,153,49,320,41,142,45,231,41*66
$BDGSV,5,2,19,141,44,126,41,150,42,213,41,147,36,197,41,144,31,112,41*6D
$BDGSV,5,3,19,145,23,251,41,156,20,165,41,169,79,184,41,188,70,353,41*6D
$BDGSV,5,4,19,159,63,274,41,178,55,006,41,160,52,026,41,175,35,317,41*64
$BDGSV,5,5,19,180,32,185,41,179,26,160,41,170,24,147,41,,,,*6F
$GPGGA,000210.00,2813.3397263,N,11259.4853051,E,1,19,0.8,70.4253,M,-16.713,M,,*46
$GPGSV,1,1,00,,,,,,,,,,,,,,,,*79
$BDGSV,5,1,19,143,59,185,41,148,51,342,45,153,49,320,41,142,45,231,41*67
$BDGSV,5,2,19,141,44,126,41,150,42,213,41,147,36,197,41,144,31,112,41*6D
$BDGSV,5,3,19,145,23,251,41,156,20,165,41,169,79,184,41,188,70,353,41*6D
$BDGSV,5,4,19,159,63,274,41,178,55,006,41,160,52,026,41,175,35,317,41*64
$BDGSV,5,5,19,180,32,185,41,179,26,160,41,170,24,147,41,,,,*6F
$GPGGA,000211.00,2813.3397272,N,11259.4853061,E,1,19,0.8,70.4196,M,-16.713,M,,*4E
$GPGSV,1,1,00,,,,,,,,,,,,,,,,*79
$BDGSV,5,1,19,143,59,185,41,148,51,342,46,153,49,320,41,142,45,231,41*64
$BDGSV,5,2,19,141,44,126,41,150,42,213,41,147,36,197,41,144,31,112,41*6D
$BDGSV,5,3,19,145,23,251,41,156,20,165,41,169,79,184,41,188,70,353,41*6D
$BDGSV,5,4,19,159,63,274,41,178,55,006,41,160,52,026,41,175,35,317,41*64
$BDGSV,5,5,19,180,32,185,41,179,26,160,41,170,24,147,41,,,,*6F
$GPGGA,000212.00,2813.3397273,N,11259.4853054,E,1,19,0.8,70.4230,M,-16.713,M,,*45
$GPGSV,1,1,00,,,,,,,,,,,,,,,,*79
$BDGSV,5,1,19,143,59,185,41,148,51,342,46,153,49,320,41,142,45,231,41*64
$BDGSV,5,2,19,141,44,126,41,150,42,213,41,147,36,197,41,144,31,112,41*6D
$BDGSV,5,3,19,145,23,251,41,156,20,165,41,169,79,184,41,188,70,353,41*6D
$BDGSV,5,4,19,159,63,274,41,178,55,006,41,160,52,026,41,175,35,317,41*64
$BDGSV,5,5,19,180,32,185,41,179,26,160,41,170,24,147,41,,,,*6F
$GPGGA,000213.00,2813.3397296,N,11259.4853029,E,1,19,0.8,70.4240,M,-16.713,M,,*42
$GPGSV,1,1,00,,,,,,,,,,,,,,,,*79
$BDGSV,5,1,19,143,59,185,41,148,51,342,44,153,49,320,41,142,45,231,41*66
$BDGSV,5,2,19,141,44,126,41,150,42,213,41,147,36,197,41,144,31,112,41*6D
$BDGSV,5,3,19,145,23,251,41,156,20,165,41,169,79,184,41,188,70,353,41*6D
$BDGSV,5,4,19,159,63,274,41,178,55,006,41,160,52,026,41,175,35,317,41*64
$BDGSV,5,5,19,180,32,185,41,179,26,160,41,170,24,147,41,,,,*6F
$GPGGA,000214.00,2813.3397312,N,11259.4853044,E,1,18,0.8,70.4162,M,-16.713,M,,*41
$GPGSV,1,1,00,,,,,,,,,,,,,,,,*79
$BDGSV,5,1,19,143,59,185,41,148,51,342,48,153,49,320,41,142,45,231,41*6A
$BDGSV,5,2,19,141,44,126,41,150,42,213,41,147,36,197,41,144,31,112,41*6D
