$GPGGA,000033.00,2813.3385642,N,11259.4849346,E,1,16,0.8,69.3258,M,-16.713,M,,*44
$GPGSV,1,1,00,,,,,,,,,,,,,,,,*79
$BDGSV,4,1,16,147,36,197,41,153,49,320,41,150,42,213,41,145,23,251,41*6C
$BDGSV,4,2,16,143,59,185,41,144,31,112,41,141,44,126,41,142,45,231,41*69
$BDGSV,4,3,16,188,70,351,41,159,63,273,41,169,79,185,41,170,24,147,41*69
$BDGSV,4,4,16,175,35,317,41,178,55,006,41,179,26,160,41,180,33,185,41*6E
$GPGGA,000034.00,2813.3388804,N,11259.4857644,E,1,17,0.8,68.7243,M,-16.713,M,,*44
$GPGSV,1,1,00,,,,,,,,,,,,,,,,*79
$BDGSV,5,1,17,147,36,197,41,153,49,320,41,150,42,213,41,145,23,251,41*6C
$BDGSV,5,2,17,143,59,185,41,144,31,112,41,141,44,126,41,142,45,231,41*69
$BDGSV,5,3,17,188,70,351,41,159,63,273,41,160,52,026,41,169,79,185,41*6F
$BDGSV,5,4,17,170,24,147,41,175,35,317,41,178,55,006,41,179,26,160,41*69
$BDGSV,5,5,17,180,33,185,41,,,,,,,,,,,,*6E
$GPGGA,000035.00,2813.3391492,N,11259.4857897,E,1,17,0.8,69.2697,M,-16.713,M,,*47
$GPGSV,1,1,00,,,,,,,,,,,,,,,,*79
$BDGSV,5,1,17,147,36,197,41,153,49,320,41,150,42,213,41,145,23,251,41*6C
$BDGSV,5,2,17,143,59,185,41,144,31,112,41,141,44,126,41,142,45,231,41*69
$BDGSV,5,3,17,188,70,352,41,159,63,273,41,160,52,026,41,169,79,185,41*6C
$BDGSV,5,4,17,170,24,147,41,175,35,317,41,178,55,006,41,179,26,160,41*69
$BDGSV,5,5,17,180,33,185,41,,,,,,,,,,,,*6E
$GPGGA,000036.00,2813.3394427,N,11259.4856569,E,1,17,0.8,69.8955,M,-16.713,M,,*49
$GPGSV,1,1,00,,,,,,,,,,,,,,,,*79
$BDGSV,5,1,17,147,36,197,41,153,49,320,41,150,42,213,41,145,23,251,41*6C
$BDGSV,5,2,17,143,59,185,42,144,31,112,41,141,44,126,41,142,45,231,41*6A
$BDGSV,5,3,17,188,70,352,41,159,63,273,41,160,52,026,41,169,79,185,41*6C
$BDGSV,5,4,17,170,24,147,41,175,35,317,41,178,55,006,41,179,26,160,41*69
$BDGSV,5,5,17,180,33,185,41,,,,,,,,,,,,*6E
$GPGGA,000037.00,2813.3396107,N,11259.4856058,E,1,17,0.8,70.4114,M,-16.713,M,,*43
$GPGSV,1,1,00,,,,,,,,,,,,,,,,*79
$BDGSV,5,1,18,147,36,197,41,153,49,320,41,150,42,213,41,145,23,251,41*63
$BDGSV,5,2,18,143,59,185,41,144,31,112,41,141,44,126,41,142,45,231,41*66
$BDGSV,5,3,18,148,73,162,41,188,70,352,41,159,63,273,41,160,52,026,41*63
$BDGSV,5,4,18,169,79,185,41,170,24,147,41,175,35,317,41,178,55,006,41*66
$BDGSV,5,5,18,179,26,160,41,180,33,185,41,,,,,,,,*68
$GPGGA,000038.00,2813.3397004,N,11259.4856026,E,1,17,0.8,70.6460,M,-16.713,M,,*42
$GPGSV,1,1,00,,,,,,,,,,,,,,,,*79
$BDGSV,5,1,18,147,36,197,41,153,49,320,41,150,42,213,42,145,23,251,41*60
$BDGSV,5,2,18,143,59,185,41,144,31,112,41,141,44,126,41,142,45,231,41*66
$BDGSV,5,3,18,148,73,162,41,188,70,352,41,159,63,273,41,160,52,026,41*63
$BDGSV,5,4,18,169,79,185,41,170,24,147,41,175,35,317,41,178,55,006,41*66
$BDGSV,5,5,18,179,26,160,41,180,33,185,41,,,,,,,,*68
$GPGGA,000039.00,2813.3397720,N,11259.4856045,E,1,17,0.8,70.8012,M,-16.713,M,,*48
$GPGSV,1,1,00,,,,,,,,,,,,,,,,*79
$BDGSV,5,1,18,147,36,197,41,153,49,320,41,150,42,213,41,145,23,251,41*63
$BDGSV,5,2,18,143,59,185,41,144,31,112,41,141,44,126,41,142,45,231,41*66
$BDGSV,5,3,18,148,73,162,41,188,70,352,42,159,63,273,41,160,52,026,41*60
$BDGSV,5,4,18,169,79,184,41,170,24,147,41,175,35,317,41,178,55,006,41*67
$BDGSV,5,5,18,179,26,160,41,180,33,185,41,,,,,,,,*68
$GPGGA,000040.00,2813.3397732,N,11259.4855911,E,1,18,0.8,71.0024,M,-16.713,M,,*4D
$GPGSV,1,1,00,,,,,,,,,,,,,,,,*79
$BDGSV,5,1,18,147,36,197,41,153,49,320,41,150,42,213,41,145,23,251,41*63
$BDGSV,5,2,18,143,59,185,41,144,31,112,41,141,44,126,41,142,45,231,41*66
$BDGSV,5,3,18,148,52,341,41,188,70,352,41,159,63,273,41,160,52,026,41*63
$BDGSV,5,4,18,169,79,184,41,170,24,147,41,175,35,317,41,178,55,006,41*67
$BDGSV,5,5,18,179,26,160,41,180,33,185,41,,,,,,,,*68
$GPGGA,000041.00,2813.3397669,N,11259.4855789,E,1,18,0.8,71.0739,M,-16.713,M,,*47
$GPGSV,1,1,00,,,,,,,,,,,,,,,,*79
$BDGSV,5,1,18,147,36,197,41,153,49,320,41,150,42,213,41,145,23,251,41*63
$BDGSV,5,2,18,143,59,185,41,144,31,112,41,141,44,126,41,142,45,231,41*66
$BDGSV,5,3,18,148,52,341,41,188,70,352,41,159,63,273,41,160,52,026,41*63
$BDGSV,5,4,18,169,79,184,41,170,24,147,41,175,35,317,41,178,55,006,41*67
$BDGSV,5,5,18,179,26,160,41,180,33,185,41,,,,,,,,*68
$GPGGA,000042.00,2813.3397504,N,11259.4855670,E,1,18,0.8,71.2566,M,-16.713,M,,*41
$GPGSV,1,1,00,,,,,,,,,,,,,,,,*79
$BDGSV,5,1,18,147,36,197,41,153,49,320,41,150,42,213,41,145,23,251,41*63
$BDGSV,5,2,18,143,59,185,41,144,31,112,41,141,44,126,41,142,45,231,41*66
$BDGSV,5,3,18,148,52,341,41,188,70,352,41,159,63,273,41,160,52,026,41*63
$BDGSV,5,4,18,169,79,184,41,170,24,147,41,175,35,317,41,178,55,006,41*67
$BDGSV,5,5,18,179,26,160,41,180,33,185,41,,,,,,,,*68
$GPGGA,000043.00,2813.3397255,N,11259.4855707,E,1,18,0.8,71.4198,M,-16.713,M,,*41
$GPGSV,1,1,00,,,,,,,,,,,,,,,,*79
$BDGSV,5,1,18,147,36,197,41,153,49,320,41,150,42,213,41,145,23,251,41*63
$BDGSV,5,2,18,143,59,185,41,144,31,112,41,141,44,126,41,142,45,231,41*66
$BDGSV,5,3,18,148,52,342,41,188,70,352,41,159,63,273,41,160,52,026,41*60
$BDGSV,5,4,18,169,79,184,41,170,24,147,41,175,35,317,41,178,55,006,41*67
$BDGSV,5,5,18,179,26,160,41,180,33,185,41,,,,,,,,*68
$GPGGA,000044.00,2813.3397131,N,11259.4855765,E,1,18,0.8,71.5358,M,-16.713,M,,*4C
$GPGSV,1,1,00,,,,,,,,,,,,,,,,*79
$BDGSV,5,1,18,147,36,197,41,153,49,320,41,150,42,213,41,145,23,251,41*63
$BDGSV,5,2,18,143,59,185,41,144,31,112,41,141,44,126,41,142,45,231,41*66
$BDGSV,5,3,18,148,52,342,41,188,70,352,41,159,63,273,41,160,52,026,41*60
$BDGSV,5,4,18,169,79,184,41,170,24,147,41,175,35,317,41,178,55,006,41*67
$BDGSV,5,5,18,179,26,160,41,180,33,185,41,,,,,,,,*68
$GPGGA,000045.00,2813.3397017,N,11259.4855817,E,1,18,0.8,71.6289,M,-16.713,M,,*4C
$GPGSV,1,1,00,,,,,,,,,,,,,,,,*79
$BDGSV,5,1,18,147,36,197,41,153,49,320,41,150,42,213,41,145,23,251,41*63
$BDGSV,5,2,18,143,59,185,41,144,31,112,41,141,44,126,41,142,45,231,41*66
$BDGSV,5,3,18,148,52,342,41,188,70,352,41,159,63,273,41,160,52,026,41*60
$BDGSV,5,4,18,169,79,184,41,170,24,147,41,175,35,317,41,178,55,006,41*67
$BDGSV,5,5,18,179,26,160,41,180,33,185,41,,,,,,,,*68
$GPGGA,000046.00,2813.3397020,N,11259.4855893,E,1,18,0.8,71.6860,M,-16.713,M,,*4A
$GPGSV,1,1,00,,,,,,,,,,,,,,,,*79
$BDGSV,5,1,18,147,36,197,41,153,49,320,41,150,42,213,41,145,23,251,41*63
$BDGSV,5,2,18,143,59,185,41,144,31,112,41,141,44,126,41,142,45,231,41*66
$BDGSV,5,3,18,148,52,342,41,188,70,352,41,159,63,273,41,160,52,026,41*60
$BDGSV,5,4,18,169,79,184,41,170,24,147,41,175,35,317,41,178,55,006,41*67
$BDGSV,5,5,18,179,26,160,41,180,33,185,41,,,,,,,,*68
$GPGGA,000047.00,2813.3397151,N,11259.4855743,E,1,18,0.8,71.6774,M,-16.713,M,,*44
$GPGSV,1,1,00,,,,,,,,,,,,,,,,*79
$BDGSV,5,1,18,147,36,197,41,153,49,320,41,150,42,213,41,145,23,251,41*63
$BDGSV,5,2,18,143,59,185,42,144,31,112,41,141,44,126,41,142,45,231,41*65
$BDGSV,5,3,18,148,52,342,41,188,70,352,41,159,63,273,40,160,52,026,41*61
$BDGSV,5,4,18,169,79,184,41,170,24,147,41,175,35,317,41,178,55,006,41*67
$BDGSV,5,5,18,179,26,160,41,180,33,185,41,,,,,,,,*68
$GPGGA,000048.00,2813.3397227,N,11259.4855365,E,1,18,0.8,71.6805,M,-16.713,M,,*40
$GPGSV,1,1,00,,,,,,,,,,,,,,,,*79
$BDGSV,5,1,18,147,36,197,41,153,49,320,41,150,42,213,41,145,23,251,41*63
$BDGSV,5,2,18,143,59,185,41,144,31,112,41,141,44,126,41,142,45,231,41*66
$BDGSV,5,3,18,148,52,342,41,188,70,352,41,159,63,273,41,160,52,026,41*60
$BDGSV,5,4,18,169,79,184,41,170,24,147,41,175,35,317,41,178,55,006,41*67
$BDGSV,5,5,18,179,26,160,41,180,33,185,41,,,,,,,,*68
$GPGGA,000049.00,2813.3397253,N,11259.4854877,E,1,18,0.8,71.7062,M,-16.713,M,,*43
$GPGSV,1,1,00,,,,,,,,,,,,,,,,*79
$BDGSV,5,1,18,147,36,197,41,153,49,320,41,150,42,213,41,145,23,251,41*63
$BDGSV,5,2,18,143,59,185,41,144,31,112,41,141,44,126,41,142,45,231,41*66
$BDGSV,5,3,18,148,52,342,41,188,70,352,41,159,63,273,41,160,52,026,41*60
$BDGSV,5,4,18,169,79,184,41,170,24,147,41,175,35,317,41,178,55,006,41*67
$BDGSV,5,5,18,179,26,160,41,180,33,185,41,,,,,,,,*68
$GPGGA,000050.00,2813.3397441,N,11259.4854407,E,1,18,0.8,71.6520,M,-16.713,M,,*47
$GPGSV,1,1,00,,,,,,,,,,,,,,,,*79
$BDGSV,5,1,18,147,36,197,41,153,49,320,41,150,42,213,41,145,23,251,41*63
$BDGSV,5,2,18,143,59,185,41,144,31,112,41,141,44,126,41,142,45,231,41*66
$BDGSV,5,3,18,148,52,342,41,188,70,352,41,159,63,273,41,160,52,026,41*60
$BDGSV,5,4,18,169,79,184,41,170,24,147,41,175,35,317,41,178,55,006,41*67
$BDGSV,5,5,18,179,26,160,41,180,33,185,41,,,,,,,,*68
$GPGGA,000051.00,2813.3397577,N,11259.4854000,E,1,18,0.8,71.5930,M,-16.713,M,,*4F
$GPGSV,1,1,00,,,,,,,,,,,,,,,,*79
$BDGSV,5,1,18,147,36,197,41,153,49,320,41,150,42,213,41,145,23,251,41*63
$BDGSV,5,2,18,143,59,185,41,144,31,112,41,141,44,126,41,142,45,231,41*66
$BDGSV,5,3,18,148,52,342,41,188,70,352,41,159,63,273,41,160,52,026,41*60
$BDGSV,5,4,18,169,79,184,41,170,24,147,41,175,35,317,41,178,55,006,41*67
$BDGSV,5,5,18,179,26,160,41,180,33,185,41,,,,,,,,*68
$GPGGA,000052.00,2813.3397547,N,11259.4853496,E,1,18,0.8,71.5601,M,-16.713,M,,*4E
$GPGSV,1,1,00,,,,,,,,,,,,,,,,*79
$BDGSV,5,1,18,147,36,197,41,153,49,320,41,150,42,213,41,145,23,251,41*63
$BDGSV,5,2,18,143,59,185,41,144,31,112,41,141,44,126,41,142,45,231,41*66
$BDGSV,5,3,18,148,52,342,41,188,70,352,41,159,63,273,41,160,52,026,41*60
$BDGSV,5,4,18,169,79,184,41,170,24,147,41,175,35,317,41,178,55,006,41*67
$BDGSV,5,5,18,179,26,160,41,180,33,185,41,,,,,,,,*68
$GPGGA,000053.00,2813.3397622,N,11259.4853243,E,1,18,0.8,71.5164,M,-16.713,M,,*45
$GPGSV,1,1,00,,,,,,,,,,,,,,,,*79
$BDGSV,5,1,18,147,36,197,41,153,49,320,41,150,42,213,41,145,23,251,41*63
$BDGSV,5,2,18,143,59,185,41,144,31,112,41,141,44,126,41,142,45,231,41*66
$BDGSV,5,3,18,148,52,342,41,188,70,352,41,159,63,273,41,160,52,026,41*60
$BDGSV,5,4,18,169,79,184,41,170,24,147,41,175,35,317,41,178,55,006,41*67
$BDGSV,5,5,18,179,26,160,42,180,33,185,41,,,,,,,,*6B
$GPGGA,000054.00,2813.3397672,N,11259.4853165,E,1,18,0.8,71.5455,M,-16.713,M,,*47
$GPGSV,1,1,00,,,,,,,,,,,,,,,,*79
$BDGSV,5,1,18,147,36,197,41,153,49,320,41,150,42,213,41,145,23,251,41*63
$BDGSV,5,2,18,143,59,185,41,144,31,112,41,141,44,126,41,142,45,231,41*66
$BDGSV,5,3,18,148,52,342,41,188,70,352,41,159,63,273,41,160,52,026,41*60
$BDGSV,5,4,18,169,79,184,42,170,24,147,41,175,35,317,41,178,55,006,41*64
$BDGSV,5,5,18,179,26,160,41,180,33,185,41,,,,,,,,*68
$GPGGA,000055.00,2813.3397683,N,11259.4853042,E,1,18,0.8,71.5375,M,-16.713,M,,*49
$GPGSV,1,1,00,,,,,,,,,,,,,,,,*79
$BDGSV,5,1,18,147,36,197,41,153,49,320,41,150,42,213,41,145,23,251,41*63
$BDGSV,5,2,18,143,59,185,41,144,31,112,41,141,44,126,41,142,45,231,41*66
$BDGSV,5,3,18,148,52,342,41,188,70,352,41,159,63,273,41,160,52,026,41*60
$BDGSV,5,4,18,169,79,184,41,170,24,147,41,175,35,317,41,178,55,006,41*67
$BDGSV,5,5,18,179,26,160,41,180,33,185,41,,,,,,,,*68
$GPGGA,000056.00,2813.3397761,N,11259.4852964,E,1,18,0.8,71.5199,M,-16.713,M,,*4B
$GPGSV,1,1,00,,,,,,,,,,,,,,,,*79
$BDGSV,5,1,18,147,36,197,41,153,49,320,41,150,42,213,41,145,23,251,41*63
$BDGSV,5,2,18,143,59,185,41,144,31,112,41,141,44,126,41,142,45,231,41*66
$BDGSV,5,3,18,148,52,342,41,188,70,352,41,159,63,273,41,160,52,026,41*60
$BDGSV,5,4,18,169,79,184,41,170,24,147,41,175,35,317,41,178,55,006,41*67
$BDGSV,5,5,18,179,26,160,41,180,33,185,41,,,,,,,,*68
$GPGGA,000057.00,2813.3397810,N,11259.4852875,E,1,18,0.8,71.5381,M,-16.713,M,,*49
$GPGSV,1,1,00,,,,,,,,,,,,,,,,*79
$BDGSV,5,1,18,147,36,197,41,153,49,320,41,150,42,213,41,145,23,251,41*63
$BDGSV,5,2,18,143,59,185,41,144,31,112,41,141,44,126,41,142,45,231,41*66
$BDGSV,5,3,18,148,52,342,41,188,70,352,41,159,63,273,41,160,52,026,41*60
$BDGSV,5,4,18,169,79,184,41,170,24,147,41,175,35,317,41,178,55,006,41*67
$BDGSV,5,5,18,179,26,160,41,180,33,185,41,,,,,,,,*68
$GPGGA,000058.00,2813.3397679,N,11259.4852625,E,1,18,0.8,71.6122,M,-16.713,M,,*44
$GPGSV,1,1,00,,,,,,,,,,,,,,,,*79
$BDGSV,5,1,18,147,36,197,41,153,49,320,41,150,42,213,41,145,23,251,41*63
$BDGSV,5,2,18,143,59,185,41,144,31,112,41,141,44,126,42,142,45,231,41*65
$BDGSV,5,3,18,148,52,342,41,188,70,352,42,159,63,273,41,160,52,026,41*63
$BDGSV,5,4,18,169,79,184,41,170,24,147,41,175,35,317,41,178,55,006,42*64
$BDGSV,5,5,18,179,26,160,41,180,33,185,41,,,,,,,,*68
$GPGGA,000059.00,2813.3397667,N,11259.4852602,E,1,19,0.8,71.6165,M,-16.713,M,,*4D
$GPGSV,1,1,00,,,,,,,,,,,,,,,,*79
$BDGSV,5,1,19,147,36,197,42,153,49,320,41,150,42,213,41,145,23,251,42*62
$BDGSV,5,2,19,143,59,185,41,144,31,112,41,141,44,126,41,142,45,231,41*67
$BDGSV,5,3,19,148,52,342,41,156,20,165,41,188,70,352,41,159,63,273,41*67
$BDGSV,5,4,19,160,52,026,41,169,79,184,41,170,24,147,41,175,35,317,41*6A
$BDGSV,5,5,19,178,55,006,41,179,26,160,41,180,33,185,41,,,,*64
$GPGGA,000100.00,2813.3397670,N,11259.4852598,E,1,19,0.8,71.6129,M,-16.713,M,,*4E
$GPGSV,1,1,00,,,,,,,,,,,,,,,,*79
$BDGSV,5,1,19,147,36,197,41,153,49,320,41,150,42,213,41,145,23,251,41*62
$BDGSV,5,2,19,143,59,185,41,144,31,112,41,141,44,126,41,142,45,231,41*67
$BDGSV,5,3,19,148,52,342,41,156,20,165,41,188,70,352,41,159,63,273,41*67
$BDGSV,5,4,19,160,52,026,41,169,79,184,41,170,24,147,41,175,35,317,41*6A
$BDGSV,5,5,19,178,55,006,41,179,26,160,41,180,33,185,41,,,,*64
$GPGGA,000101.00,2813.3397656,N,11259.4852588,E,1,19,0.8,71.6228,M,-16.713,M,,*48
$GPGSV,1,1,00,,,,,,,,,,,,,,,,*79
$BDGSV,5,1,19,147,36,197,41,153,49,320,41,150,42,213,41,145,23,251,41*62
$BDGSV,5,2,19,143,59,185,41,144,31,112,41,141,44,126,41,142,45,231,41*67
$BDGSV,5,3,19,148,52,342,41,156,20,165,41,188,70,352,41,159,63,273,41*67
$BDGSV,5,4,19,160,52,026,41,169,79,184,41,170,24,147,41,175,35,317,41*6A
$BDGSV,5,5,19,178,55,006,41,179,26,160,41,180,33,185,41,,,,*64
$GPGGA,000102.00,2813.3397642,N,11259.4852566,E,1,19,0.8,71.6219,M,-16.713,M,,*4C
$GPGSV,1,1,00,,,,,,,,,,,,,,,,*79
$BDGSV,5,1,19,147,36,197,41,153,49,320,41,150,42,213,41,145,23,251,41*62
$BDGSV,5,2,19,143,59,185,41,144,31,112,41,141,44,126,41,142,45,231,41*67
$BDGSV,5,3,19,148,52,342,41,156,20,165,41,188,70,352,41,159,63,273,41*67
$BDGSV,5,4,19,160,52,026,41,169,79,184,41,170,24,147,41,175,35,317,41*6A
$BDGSV,5,5,19,178,55,006,41,179,26,160,41,180,33,185,41,,,,*64
$GPGGA,000103.00,2813.3397648,N,11259.4852535,E,1,19,0.8,71.6129,M,-16.713,M,,*41
$GPGSV,1,1,00,,,,,,,,,,,,,,,,*79
$BDGSV,5,1,19,147,36,197,41,153,49,320,41,150,42,213,42,145,23,251,41*61
$BDGSV,5,2,19,143,59,185,41,144,31,112,41,141,44,126,41,142,45,231,41*67
$BDGSV,5,3,19,148,52,342,41,156,20,165,41,188,70,352,41,159,63,273,41*67
$BDGSV,5,4,19,160,52,026,41,169,79,184,41,170,24,147,41,175,35,317,42*69
$BDGSV,5,5,19,178,55,006,41,179,26,160,41,180,33,185,41,,,,*64
$GPGGA,000104.00,2813.3397663,N,11259.4852525,E,1,19,0.8,71.5944,M,-16.713,M,,*4E
$GPGSV,1,1,00,,,,,,,,,,,,,,,,*79
$BDGSV,5,1,19,147,36,197,41,153,49,320,41,150,42,213,41,145,23,251,41*62
$BDGSV,5,2,19,143,59,185,41,144,31,112,41,141,44,126,41,142,45,231,41*67
$BDGSV,5,3,19,148,52,342,41,156,20,165,41,188,70,352,41,159,63,273,41*67
$BDGSV,5,4,19,160,52,026,41,169,79,184,41,170,24,147,41,175,35,317,41*6A
$BDGSV,5,5,19,178,55,006,41,179,26,160,41,180,33,185,41,,,,*64
$GPGGA,000105.00,2813.3397660,N,11259.4852507,E,1,19,0.8,71.5926,M,-16.713,M,,*48
$GPGSV,1,1,00,,,,,,,,,,,,,,,,*79
$BDGSV,5,1,19,147,36,197,41,153,49,320,41,150,42,213,41,145,23,251,41*62
$BDGSV,5,2,19,143,59,185,41,144,31,112,41,141,44,126,41,142,45,231,41*67
$BDGSV,5,3,19,148,52,342,41,156,20,165,41,188,70,352,41,159,63,273,41*67
$BDGSV,5,4,19,160,52,026,41,169,79,184,41,170,24,147,41,175,35,317,41*6A
$BDGSV,5,5,19,178,55,006,41,179,26,160,41,180,33,185,41,,,,*64
$GPGGA,000106.00,2813.3397664,N,11259.4852506,E,1,19,0.8,71.5875,M,-16.713,M,,*49
$GPGSV,1,1,00,,,,,,,,,,,,,,,,*79
$BDGSV,5,1,19,147,36,197,41,153,49,320,41,150,42,213,41,145,23,251,41*62
$BDGSV,5,2,19,143,59,185,41,144,31,112,41,141,44,126,41,142,45,231,41*67
$BDGSV,5,3,19,148,52,342,41,156,20,165,41,188,70,352,41,159,63,273,41*67
$BDGSV,5,4,19,160,52,026,41,169,79,184,41,170,24,147,41,175,35,317,41*6A
$BDGSV,5,5,19,178,55,006,41,179,26,160,41,180,33,185,41,,,,*64
$GPGGA,000107.00,2813.3397669,N,11259.4852500,E,1,19,0.8,71.5782,M,-16.713,M,,*44
$GPGSV,1,1,00,,,,,,,,,,,,,,,,*79
$BDGSV,5,1,19,147,36,197,41,153,49,320,41,150,42,213,41,145,23,251,41*62
$BDGSV,5,2,19,143,59,185,41,144,31,112,41,141,44,126,41,142,45,231,41*67
$BDGSV,5,3,19,148,52,342,41,156,20,165,41,188,70,352,41,159,63,273,41*67
$BDGSV,5,4,19,160,52,026,41,169,79,184,41,170,24,147,41,175,35,317,41*6A
$BDGSV,5,5,19,178,55,006,41,179,26,160,40,180,33,185,41,,,,*65
$GPGGA,000108.00,2813.3397669,N,11259.4852486,E,1,19,0.8,71.5755,M,-16.713,M,,*4E
$GPGSV,1,1,00,,,,,,,,,,,,,,,,*79
$BDGSV,5,1,19,147,36,197,41,153,49,320,41,150,42,213,41,145,23,251,41*62
$BDGSV,5,2,19,143,59,185,41,144,31,112,41,141,44,126,41,142,45,231,41*67
$BDGSV,5,3,19,148,52,342,41,156,20,165,41,188,70,352,41,159,63,273,41*67
$BDGSV,5,4,19,160,52,026,41,169,79,184,41,170,24,147,41,175,35,317,41*6A
$BDGSV,5,5,19,178,55,006,41,179,26,160,41,180,33,185,41,,,,*64
$GPGGA,000109.00,2813.3397669,N,11259.4852483,E,1,19,0.8,71.5685,M,-16.713,M,,*46
$GPGSV,1,1,00,,,,,,,,,,,,,,,,*79
$BDGSV,5,1,19,147,36,197,41,153,49,320,41,150,42,213,41,145,23,251,41*62
$BDGSV,5,2,19,143,59,185,41,144,31,112,41,141,44,126,41,142,45,231,41*67
$BDGSV,5,3,19,148,52,342,41,156,20,165,41,188,70,352,41,159,63,273,41*67
$BDGSV,5,4,19,160,52,026,41,169,79,184,41,170,24,147,41,175,35,317,41*6A
$BDGSV,5,5,19,178,55,006,41,179,26,160,41,180,33,185,41,,,,*64
$GPGGA,000110.00,2813.3397675,N,11259.4852492,E,1,19,0.8,71.5543,M,-16.713,M,,*4A
$GPGSV,1,1,00,,,,,,,,,,,,,,,,*79
$BDGSV,5,1,19,147,36,197,41,153,49,320,41,150,42,213,41,145,23,251,41*62
$BDGSV,5,2,19,143,59,185,41,144,31,112,41,141,44,126,41,142,45,231,41*67
$BDGSV,5,3,19,148,52,342,41,156,20,165,41,188,70,352,41,159,63,273,41*67
$BDGSV,5,4,19,160,52,026,41,169,79,184,41,170,24,147,41,175,35,317,41*6A
$BDGSV,5,5,19,178,55,006,41,179,26,160,41,180,33,185,41,,,,*64
$GPGGA,000111.00,2813.3397672,N,11259.4852477,E,1,19,0.8,71.5481,M,-16.713,M,,*48
$GPGSV,1,1,00,,,,,,,,,,,,,,,,*79
$BDGSV,5,1,19,147,36,197,41,153,49,320,41,150,42,213,41,145,23,251,41*62
$BDGSV,5,2,19,143,59,185,41,144,31,112,41,141,44,126,41,142,45,231,41*67
$BDGSV,5,3,19,148,52,342,41,156,20,165,41,188,70,352,41,159,63,273,41*67
$BDGSV,5,4,19,160,52,026,41,169,79,184,41,170,24,147,41,175,35,317,41*6A
$BDGSV,5,5,19,178,55,006,41,179,26,160,41,180,33,185,41,,,,*64
$GPGGA,000112.00,2813.3397676,N,11259.4852463,E,1,19,0.8,71.5436,M,-16.713,M,,*46
$GPGSV,1,1,00,,,,,,,,,,,,,,,,*79
$BDGSV,5,1,19,147,36,197,41,153,49,320,41,150,42,213,41,145,23,251,41*62
$BDGSV,5,2,19,143,59,185,41,144,31,112,41,141,44,126,41,142,45,231,41*67
$BDGSV,5,3,19,148,52,342,41,156,20,165,41,188,70,352,41,159,63,273,41*67
$BDGSV,5,4,19,160,52,026,41,169,79,184,41,170,24,147,41,175,35,317,41*6A
$BDGSV,5,5,19,178,55,006,41,179,26,160,41,180,33,185,41,,,,*64
$GPGGA,000113.00,2813.3397688,N,11259.4852458,E,1,19,0.8,71.5315,M,-16.713,M,,*48
$GPGSV,1,1,00,,,,,,,,,,,,,,,,*79
$BDGSV,5,1,19,147,36,197,41,153,49,320,41,150,42,213,41,145,23,251,41*62
$BDGSV,5,2,19,143,59,185,41,144,31,112,41,141,44,126,41,142,45,231,41*67
$BDGSV,5,3,19,148,52,342,41,156,20,165,41,188,70,352,41,159,63,273,41*67
$BDGSV,5,4,19,160,52,026,41,169,79,184,41,170,24,147,41,175,35,317,41*6A
$BDGSV,5,5,19,178,55,006,41,179,26,160,41,180,33,185,41,,,,*64
$GPGGA,000114.00,2813.3397685,N,11259.4852463,E,1,19,0.8,71.5197,M,-16.713,M,,*42
$GPGSV,1,1,00,,,,,,,,,,,,,,,,*79
$BDGSV,5,1,19,147,36,197,41,153,49,320,41,150,42,213,41,145,23,251,41*62
$BDGSV,5,2,19,143,59,185,41,144,31,112,41,141,44,126,41,142,45,231,41*67
$BDGSV,5,3,19,148,52,342,41,156,20,165,41,188,70,352,41,159,63,273,41*67
$BDGSV,5,4,19,160,52,026,41,169,79,184,41,170,24,147,41,175,35,317,41*6A
$BDGSV,5,5,19,178,55,006,41,179,26,160,41,180,33,185,41,,,,*64
$GPGGA,000115.00,2813.3397692,N,11259.4852452,E,1,19,0.8,71.5104,M,-16.713,M,,*4D
$GPGSV,1,1,00,,,,,,,,,,,,,,,,*79
$BDGSV,5,1,19,147,36,197,41,153,49,320,41,150,42,213,41,145,23,251,41*62
$BDGSV,5,2,19,143,59,185,41,144,31,112,41,141,44,126,41,142,45,231,41*67
$BDGSV,5,3,19,148,52,342,41,156,20,165,42,188,70,352,41,159,63,273,41*64
$BDGSV,5,4,19,160,52,026,41,169,79,184,41,170,24,147,41,175,35,317,41*6A
$BDGSV,5,5,19,178,55,006,41,179,26,160,41,180,33,185,41,,,,*64
$GPGGA,000116.00,2813.3397691,N,11259.4852454,E,1,19,0.8,71.5112,M,-16.713,M,,*4C
$GPGSV,1,1,00,,,,,,,,,,,,,,,,*79
$BDGSV,5,1,19,147,36,197,41,153,49,320,41,150,42,213,41,145,23,251,41*62
$BDGSV,5,2,19,143,59,185,41,144,31,112,41,141,44,126,41,142,45,231,41*67
$BDGSV,5,3,19,148,52,342,41,156,20,165,41,188,70,352,41,159,63,273,41*67
$BDGSV,5,4,19,160,52,026,41,169,79,184,41,170,24,147,41,175,35,317,41*6A
$BDGSV,5,5,19,178,55,006,41,179,26,160,41,180,33,185,41,,,,*64
$GPGGA,000117.00,2813.3397688,N,11259.4852451,E,1,19,0.8,71.5065,M,-16.713,M,,*41
$GPGSV,1,1,00,,,,,,,,,,,,,,,,*79
$BDGSV,5,1,19,147,36,197,41,153,49,320,41,150,42,213,41,145,23,251,42*61
$BDGSV,5,2,19,143,59,185,41,144,31,112,41,141,44,126,41,142,45,231,41*67
$BDGSV,5,3,19,148,52,342,41,156,20,165,41,188,70,352,41,159,63,273,41*67
$BDGSV,5,4,19,160,52,026,41,169,79,184,41,170,24,147,41,175,35,317,41*6A
$BDGSV,5,5,19,178,55,006,41,179,26,160,42,180,33,185,41,,,,*67
$GPGGA,000118.00,2813.3397683,N,11259.4852453,E,1,19,0.8,71.4983,M,-16.713,M,,*47
$GPGSV,1,1,00,,,,,,,,,,,,,,,,*79
$BDGSV,5,1,19,147,36,197,41,153,49,320,41,150,42,213,41,145,23,251,41*62
$BDGSV,5,2,19,143,59,185,41,144,31,112,41,141,44,126,41,142,45,231,41*67
$BDGSV,5,3,19,148,52,342,41,156,20,165,41,188,70,352,41,159,63,273,41*67
$BDGSV,5,4,19,160,52,026,41,169,79,184,41,170,24,147,41,175,35,317,41*6A
$BDGSV,5,5,19,178,55,006,41,179,26,160,41,180,33,185,41,,,,*64
$GPGGA,000119.00,2813.3397686,N,11259.4852435,E,1,19,0.8,71.4957,M,-16.713,M,,*4A
$GPGSV,1,1,00,,,,,,,,,,,,,,,,*79
$BDGSV,5,1,19,147,36,197,41,153,49,320,41,150,42,213,41,145,23,251,42*61
$BDGSV,5,2,19,143,59,185,41,144,31,112,41,141,44,126,41,142,45,231,41*67
$BDGSV,5,3,19,148,52,342,41,156,20,165,41,188,70,352,41,159,63,273,41*67
$BDGSV,5,4,19,160,52,026,41,169,79,184,41,170,24,147,41,175,35,317,41*6A
$BDGSV,5,5,19,178,55,006,41,179,26,160,41,180,33,185,41,,,,*64
$GPGGA,000120.00,2813.3397679,N,11259.4852420,E,1,19,0.8,71.5007,M,-16.713,M,,*49
$GPGSV,1,1,00,,,,,,,,,,,,,,,,*79
$BDGSV,5,1,19,147,36,197,41,153,49,320,41,150,42,213,41,145,23,251,41*62
$BDGSV,5,2,19,143,59,185,41,144,31,112,41,141,44,126,41,142,45,231,41*67
$BDGSV,5,3,19,148,52,342,41,156,20,165,41,188,70,352,41,159,63,273,41*67
$BDGSV,5,4,19,160,52,026,41,169,79,184,41,170,24,147,41,175,35,317,41*6A
$BDGSV,5,5,19,178,55,006,41,179,26,160,41,180,33,185,41,,,,*64
$GPGGA,000121.00,2813.3397684,N,11259.4852417,E,1,19,0.8,71.4966,M,-16.713,M,,*41
$GPGSV,1,1,00,,,,,,,,,,,,,,,,*79
$BDGSV,5,1,19,147,36,197,41,153,49,320,41,150,42,213,41,145,23,251,41*62
$BDGSV,5,2,19,143,59,185,41,144,31,112,41,141,44,126,41,142,45,231,41*67
$BDGSV,5,3,19,148,52,342,41,156,20,165,41,188,70,352,41,159,63,273,41*67
$BDGSV,5,4,19,160,52,026,41,169,79,184,41,170,24,147,41,175,35,317,41*6A
$BDGSV,5,5,19,178,55,006,41,179,26,160,41,180,33,185,41,,,,*64
$GPGGA,000122.00,2813.3397695,N,11259.4852425,E,1,19,0.8,71.4823,M,-16.713,M,,*43
$GPGSV,1,1,00,,,,,,,,,,,,,,,,*79
$BDGSV,5,1,19,147,36,197,41,153,49,320,41,150,42,213,41,145,23,251,41*62
$BDGSV,5,2,19,143,59,185,41,144,31,112,41,141,44,126,41,142,45,231,41*67
$BDGSV,5,3,19,148,52,342,41,156,20,165,41,188,70,352,41,159,63,273,41*67
$BDGSV,5,4,19,160,52,026,41,169,79,184,41,170,24,147,41,175,35,317,41*6A
$BDGSV,5,5,19,178,55,006,41,179,26,160,41,180,33,185,41,,,,*64
$GPGGA,000123.00,2813.3397697,N,11259.4852410,E,1,19,0.8,71.4790,M,-16.713,M,,*41
$GPGSV,1,1,00,,,,,,,,,,,,,,,,*79
$BDGSV,5,1,19,147,36,197,41,153,49,320,41,150,42,213,41,145,23,251,41*62
$BDGSV,5,2,19,143,59,185,41,144,31,112,41,141,44,126,41,142,45,231,41*67
$BDGSV,5,3,19,148,52,342,41,156,20,165,41,188,70,352,41,159,63,273,41*67
$BDGSV,5,4,19,160,52,026,41,169,79,184,41,170,24,147,41,175,35,317,41*6A
$BDGSV,5,5,19,178,55,006,41,179,26,160,41,180,33,185,41,,,,*64
$GPGGA,000124.00,2813.3397697,N,11259.4852409,E,1,19,0.8,71.4800,M,-16.713,M,,*48
$GPGSV,1,1,00,,,,,,,,,,,,,,,,*79
$BDGSV,5,1,19,147,36,197,41,153,49,320,41,150,42,213,41,145,23,251,41*62
$BDGSV,5,2,19,143,59,185,41,144,31,112,41,141,44,126,41,142,45,231,41*67
$BDGSV,5,3,19,148,52,342,41,156,20,165,41,188,70,352,41,159,63,273,41*67
$BDGSV,5,4,19,160,52,026,41,169,79,184,41,170,24,147,41,175,35,317,41*6A
$BDGSV,5,5,19,178,55,006,41,179,26,160,41,180,33,185,41,,,,*64
$GPGGA,000125.00,2813.3397697,N,11259.4852395,E,1,19,0.8,71.4765,M,-16.713,M,,*47
$GPGSV,1,1,00,,,,,,,,,,,,,,,,*79
$BDGSV,5,1,19,147,36,197,41,153,49,320,41,150,42,213,41,145,23,251,41*62
$BDGSV,5,2,19,143,59,185,41,144,31,112,41,141,44,126,41,142,45,231,41*67
$BDGSV,5,3,19,148,52,342,41,156,20,165,41,188,70,352,41,159,63,273,41*67
$BDGSV,5,4,19,160,52,026,41,169,79,184,41,170,24,147,41,175,35,317,41*6A
$BDGSV,5,5,19,178,55,006,41,179,26,160,41,180,33,185,41,,,,*64
$GPGGA,000126.00,2813.3397701,N,11259.4852405,E,1,19,0.8,71.4697,M,-16.713,M,,*48
$GPGSV,1,1,00,,,,,,,,,,,,,,,,*79
$BDGSV,5,1,19,147,36,197,41,153,49,320,41,150,42,213,41,145,23,251,41*62
$BDGSV,5,2,19,143,59,185,41,144,31,112,41,141,44,126,41,142,45,231,41*67
$BDGSV,5,3,19,148,52,342,41,156,20,165,41,188,70,352,41,159,63,273,41*67
$BDGSV,5,4,19,160,52,026,41,169,79,184,41,170,24,147,41,175,35,317,41*6A
$BDGSV,5,5,19,178,55,006,41,179,26,160,41,180,33,185,41,,,,*64
$GPGGA,000127.00,2813.3397699,N,11259.4852396,E,1,19,0.8,71.4702,M,-16.713,M,,*49
$GPGSV,1,1,00,,,,,,,,,,,,,,,,*79
$BDGSV,5,1,19,147,36,197,41,153,49,320,41,150,42,213,41,145,23,251,41*62
$BDGSV,5,2,19,143,59,185,41,144,31,112,41,141,44,126,41,142,45,231,41*67
$BDGSV,5,3,19,148,52,342,41,156,20,165,41,188,70,352,41,159,63,273,41*67
$BDGSV,5,4,19,160,52,026,41,169,79,184,41,170,24,147,41,175,35,317,41*6A
$BDGSV,5,5,19,178,55,006,41,179,26,160,41,180,33,185,41,,,,*64
$GPGGA,000128.00,2813.3397705,N,11259.4852379,E,1,19,0.8,71.4642,M,-16.713,M,,*46
$GPGSV,1,1,00,,,,,,,,,,,,,,,,*79
$BDGSV,5,1,19,147,36,197,41,153,49,320,41,150,42,213,41,145,23,251,41*62
$BDGSV,5,2,19,143,59,185,41,144,31,112,41,141,44,126,41,142,45,231,42*64
$BDGSV,5,3,19,148,52,342,41,156,20,165,41,188,70,352,41,159,63,273,41*67
$BDGSV,5,4,19,160,52,026,41,169,79,184,41,170,24,147,41,175,35,317,41*6A
$BDGSV,5,5,19,178,55,006,41,179,26,160,41,180,33,185,41,,,,*64
$GPGGA,000129.00,2813.3397713,N,11259.4852376,E,1,19,0.8,71.4587,M,-16.713,M,,*45
$GPGSV,1,1,00,,,,,,,,,,,,,,,,*79
$BDGSV,5,1,19,147,36,197,41,153,49,320,41,150,42,213,41,145,23,251,41*62
$BDGSV,5,2,19,143,59,185,41,144,31,112,41,141,44,126,41,142,45,231,41*67
$BDGSV,5,3,19,148,52,342,41,156,20,165,41,188,70,352,41,159,63,273,41*67
$BDGSV,5,4,19,160,52,026,41,169,79,184,41,170,24,147,41,175,35,317,41*6A
$BDGSV,5,5,19,178,55,006,41,179,26,160,41,180,33,185,41,,,,*64
$GPGGA,000130.00,2813.3397714,N,11259.4852353,E,1,19,0.8,71.4570,M,-16.713,M,,*45
$GPGSV,1,1,00,,,,,,,,,,,,,,,,*79
$BDGSV,5,1,19,147,36,197,41,153,49,320,42,150,42,213,41,145,23,251,41*61
$BDGSV,5,2,19,143,59,185,41,144,31,112,41,141,44,126,41,142,45,231,41*67
$BDGSV,5,3,19,148,52,342,41,156,20,165,41,188,70,352,41,159,63,273,41*67
$BDGSV,5,4,19,160,52,026,41,169,79,184,41,170,24,147,41,175,35,317,41*6A
$BDGSV,5,5,19,178,55,006,41,179,26,160,41,180,33,185,41,,,,*64
$GPGGA,000131.00,2813.3397715,N,11259.4852345,E,1,19,0.8,71.4531,M,-16.713,M,,*47
$GPGSV,1,1,00,,,,,,,,,,,,,,,,*79
$BDGSV,5,1,19,147,36,197,41,153,49,320,41,150,42,213,42,145,23,251,41*61
$BDGSV,5,2,19,143,59,185,41,144,31,112,41,141,44,126,41,142,45,231,41*67
$BDGSV,5,3,19,148,52,342,41,156,20,165,41,188,70,352,41,159,63,273,41*67
$BDGSV,5,4,19,160,52,026,41,169,79,184,41,170,24,147,41,175,35,317,41*6A
$BDGSV,5,5,19,178,55,006,41,179,26,160,41,180,33,185,41,,,,*64
$GPGGA,000132.00,2813.3397716,N,11259.4852356,E,1,19,0.8,71.4427,M,-16.713,M,,*43
$GPGSV,1,1,00,,,,,,,,,,,,,,,,*79
$BDGSV,5,1,19,147,36,197,41,153,49,320,41,150,42,213,41,145,23,251,41*62
$BDGSV,5,2,19,143,59,185,42,144,31,112,41,141,44,126,41,142,45,231,41*64
$BDGSV,5,3,19,148,52,342,41,156,20,165,41,188,70,352,41,159,63,274,41*60
$BDGSV,5,4,19,160,52,026,41,169,79,184,41,170,24,147,41,175,35,317,41*6A
$BDGSV,5,5,19,178,55,006,41,179,26,160,41,180,33,185,41,,,,*64
$GPGGA,000133.00,2813.3397712,N,11259.4852363,E,1,19,0.8,71.4305,M,-16.713,M,,*47
$GPGSV,1,1,00,,,,,,,,,,,,,,,,*79
$BDGSV,5,1,19,147,36,197,41,153,49,320,40,150,42,213,41,145,23,251,41*63
$BDGSV,5,2,19,143,59,185,41,144,31,112,41,141,44,126,41,142,45,231,41*67
$BDGSV,5,3,19,148,51,342,41,156,20,165,41,188,70,352,41,159,63,274,41*63
$BDGSV,5,4,19,160,52,026,41,169,79,184,41,170,24,147,41,175,35,317,41*6A
$BDGSV,5,5,19,178,55,006,41,179,26,160,41,180,33,185,41,,,,*64
$GPGGA,000134.00,2813.3397722,N,11259.4852361,E,1,19,0.8,71.4227,M,-16.713,M,,*40
$GPGSV,1,1,00,,,,,,,,,,,,,,,,*79
$BDGSV,5,1,19,147,36,197,41,153,49,320,41,150,42,213,41,145,23,251,41*62
$BDGSV,5,2,19,143,59,185,41,144,31,112,41,141,44,126,41,142,45,231,41*67
$BDGSV,5,3,19,148,51,342,41,156,20,165,41,188,70,352,41,159,63,274,41*63
$BDGSV,5,4,19,160,52,026,41,169,79,184,41,170,24,147,41,175,35,317,41*6A
$BDGSV,5,5,19,178,55,006,41,179,26,160,41,180,33,185,42,,,,*67
$GPGGA,000135.00,2813.3397723,N,11259.4852354,E,1,19,0.8,71.4119,M,-16.713,M,,*48
$GPGSV,1,1,00,,,,,,,,,,,,,,,,*79
$BDGSV,5,1,19,147,36,197,41,153,49,320,41,150,42,213,41,145,23,251,41*62
$BDGSV,5,2,19,143,59,185,41,144,31,112,41,141,44,126,41,142,45,231,41*67
$BDGSV,5,3,19,148,51,342,41,156,20,165,41,188,70,352,41,159,63,274,41*63
$BDGSV,5,4,19,160,52,026,41,169,79,184,41,170,24,147,41,175,35,317,41*6A
$BDGSV,5,5,19,178,55,006,41,179,26,160,41,180,33,185,41,,,,*64
$GPGGA,000136.00,2813.3397727,N,11259.4852351,E,1,19,0.8,71.4006,M,-16.713,M,,*45
$GPGSV,1,1,00,,,,,,,,,,,,,,,,*79
$BDGSV,5,1,19,147,36,197,41,153,49,320,41,150,42,213,41,145,23,251,41*62
$BDGSV,5,2,19,143,59,185,41,144,31,112,41,141,44,126,41,142,45,231,41*67
$BDGSV,5,3,19,148,51,342,41,156,20,165,41,188,70,352,41,159,63,274,41*63
$BDGSV,5,4,19,160,52,026,41,169,79,184,41,170,24,147,41,175,35,317,41*6A
$BDGSV,5,5,19,178,55,006,41,179,26,160,41,180,33,185,41,,,,*64
$GPGGA,000137.00,2813.3397721,N,11259.4852326,E,1,19,0.8,71.4009,M,-16.713,M,,*4D
$GPGSV,1,1,00,,,,,,,,,,,,,,,,*79
$BDGSV,5,1,19,147,36,197,41,153,49,320,41,150,42,213,41,145,23,251,41*62
$BDGSV,5,2,19,143,59,185,41,144,31,112,41,141,44,126,41,142,45,231,41*67
$BDGSV,5,3,19,148,51,342,41,156,20,165,41,188,70,352,41,159,63,274,41*63
$BDGSV,5,4,19,160,52,026,41,169,79,184,41,170,24,147,41,175,35,317,41*6A
$BDGSV,5,5,19,178,55,006,41,179,26,160,41,180,33,185,41,,,,*64
$GPGGA,000138.00,2813.3397714,N,11259.4852333,E,1,19,0.8,71.4028,M,-16.713,M,,*43
$GPGSV,1,1,00,,,,,,,,,,,,,,,,*79
$BDGSV,5,1,19,147,36,197,41,153,49,320,46,150,42,213,41,145,23,251,41*65
$BDGSV,5,2,19,143,59,185,41,144,31,112,41,141,44,126,41,142,45,231,41*67
$BDGSV,5,3,19,148,51,342,46,156,20,165,41,188,70,352,41,159,63,274,41*64
$BDGSV,5,4,19,160,52,026,41,169,79,184,41,170,24,147,41,175,35,317,41*6A
$BDGSV,5,5,19,178,55,006,41,179,26,160,41,180,33,185,41,,,,*64
$GPGGA,000139.00,2813.3397715,N,11259.4852345,E,1,19,0.8,71.3929,M,-16.713,M,,*4D
$GPGSV,1,1,00,,,,,,,,,,,,,,,,*79
$BDGSV,5,1,19,147,36,197,41,153,49,320,46,150,42,213,41,145,23,251,41*65
$BDGSV,5,2,19,143,59,185,41,144,31,112,41,141,44,126,41,142,45,231,41*67
$BDGSV,5,3,19,148,51,342,46,156,20,165,41,188,70,352,41,159,63,274,41*64
$BDGSV,5,4,19,160,52,026,41,169,79,184,41,170,24,147,41,175,35,317,41*6A
$BDGSV,5,5,19,178,55,006,41,179,26,160,41,180,33,185,41,,,,*64
$GPGGA,000140.00,2813.3397720,N,11259.4852343,E,1,19,0.8,71.3840,M,-16.713,M,,*4D
$GPGSV,1,1,00,,,,,,,,,,,,,,,,*79
$BDGSV,5,1,19,147,36,197,41,153,49,320,46,150,42,213,41,145,23,251,41*65
$BDGSV,5,2,19,143,59,185,41,144,31,112,41,141,44,126,41,142,45,231,41*67
$BDGSV,5,3,19,148,51,342,46,156,20,165,41,188,70,352,41,159,63,274,41*64
$BDGSV,5,4,19,160,52,026,41,169,79,184,41,170,24,147,41,175,35,317,41*6A
$BDGSV,5,5,19,178,55,006,41,179,26,160,41,180,33,185,41,,,,*64
$GPGGA,000141.00,2813.3397723,N,11259.4852326,E,1,19,0.8,71.3781,M,-16.713,M,,*4E
$GPGSV,1,1,00,,,,,,,,,,,,,,,,*79
$BDGSV,5,1,19,147,36,197,41,153,49,320,44,150,42,213,41,145,23,251,41*67
$BDGSV,5,2,19,143,59,185,41,144,31,112,41,141,44,126,41,142,45,231,41*67
$BDGSV,5,3,19,148,51,342,42,156,20,165,41,188,70,352,41,159,63,274,41*60
$BDGSV,5,4,19,160,52,026,41,169,79,184,41,170,24,147,41,175,35,317,41*6A
$BDGSV,5,5,19,178,55,006,41,179,26,160,41,180,33,185,41,,,,*64
$GPGGA,000142.00,2813.3397720,N,11259.4852325,E,1,19,0.8,71.3653,M,-16.713,M,,*43
$GPGSV,1,1,00,,,,,,,,,,,,,,,,*79
$BDGSV,5,1,19,147,36,197,41,153,49,320,46,150,42,213,41,145,23,251,41*65
$BDGSV,5,2,19,143,59,185,41,144,31,112,41,141,44,126,41,142,45,231,41*67
$BDGSV,5,3,19,148,51,342,46,156,20,165,41,188,70,352,41,159,63,274,41*64
$BDGSV,5,4,19,160,52,026,41,169,79,184,41,170,24,147,41,175,35,317,41*6A
$BDGSV,5,5,19,178,55,006,41,179,26,160,41,180,33,185,42,,,,*67
$GPGGA,000143.00,2813.3397715,N,11259.4852343,E,1,19,0.8,71.3580,M,-16.713,M,,*49
$GPGSV,1,1,00,,,,,,,,,,,,,,,,*79
$BDGSV,5,1,19,147,36,197,41,153,49,320,46,150,42,213,41,145,23,251,41*65
$BDGSV,5,2,19,143,59,185,41,144,31,112,41,141,44,126,41,142,45,231,41*67
$BDGSV,5,3,19,148,51,342,46,156,20,165,41,188,70,352,41,159,63,274,41*64
$BDGSV,5,4,19,160,52,026,41,169,79,184,41,170,24,147,41,175,35,317,41*6A
$BDGSV,5,5,19,178,55,006,41,179,26,160,41,180,33,185,41,,,,*64
$GPGGA,000144.00,2813.3397724,N,11259.4852338,E,1,19,0.8,71.3469,M,-16.713,M,,*46
$GPGSV,1,1,00,,,,,,,,,,,,,,,,*79
$BDGSV,5,1,19,147,36,197,41,153,49,320,46,150,42,213,41,145,23,251,41*65
$BDGSV,5,2,19,143,59,185,41,144,31,112,41,141,44,126,41,142,45,231,41*67
$BDGSV,5,3,19,148,51,342,46,156,20,165,41,188,70,352,41,159,63,274,41*64
$BDGSV,5,4,19,160,52,026,41,169,79,184,41,170,24,147,41,175,35,317,41*6A
$BDGSV,5,5,19,178,55,006,41,179,26,160,41,180,33,185,41,,,,*64
$GPGGA,000145.00,2813.3397731,N,11259.4852322,E,1,19,0.8,71.3412,M,-16.713,M,,*44
$GPGSV,1,1,00,,,,,,,,,,,,,,,,*79
$BDGSV,5,1,19,147,36,197,41,153,49,320,44,150,42,213,41,145,23,251,40*66
$BDGSV,5,2,19,143,59,185,41,144,31,112,41,141,44,126,41,142,45,231,41*67
$BDGSV,5,3,19,148,51,342,36,156,20,165,41,188,70,353,41,159,63,274,41*62
$BDGSV,5,4,19,160,52,026,41,169,79,184,40,170,24,147,41,175,35,317,41*6B
$BDGSV,5,5,19,178,55,006,41,179,26,160,41,180,33,185,41,,,,*64
$GPGGA,000146.00,2813.3397745,N,11259.4852344,E,1,19,0.8,71.3274,M,-16.713,M,,*42
$GPGSV,1,1,00,,,,,,,,,,,,,,,,*79
$BDGSV,5,1,19,147,36,197,41,153,49,320,46,150,42,213,41,145,23,251,41*65
$BDGSV,5,2,19,143,59,185,41,144,31,112,41,141,44,126,41,142,45,231,41*67
$BDGSV,5,3,19,148,51,342,46,156,20,165,41,188,70,353,41,159,63,274,41*65
$BDGSV,5,4,19,160,52,026,41,169,79,184,41,170,24,147,41,175,35,317,41*6A
$BDGSV,5,5,19,178,55,006,41,179,26,160,41,180,33,185,41,,,,*64
$GPGGA,000147.00,2813.3397749,N,11259.4852359,E,1,19,0.8,71.3156,M,-16.713,M,,*40
$GPGSV,1,1,00,,,,,,,,,,,,,,,,*79
$BDGSV,5,1,19,147,36,197,41,153,49,320,46,150,42,213,41,145,23,251,41*65
$BDGSV,5,2,19,143,59,185,41,144,31,112,41,141,44,126,41,142,45,231,41*67
$BDGSV,5,3,19,148,51,342,46,156,20,165,41,188,70,353,41,159,63,274,40*64
$BDGSV,5,4,19,160,52,026,41,169,79,184,41,170,24,147,41,175,35,317,41*6A
$BDGSV,5,5,19,178,55,006,41,179,26,160,41,180,33,185,41,,,,*64
$GPGGA,000148.00,2813.3397749,N,11259.4852354,E,1,19,0.8,71.3097,M,-16.713,M,,*4E
$GPGSV,1,1,00,,,,,,,,,,,,,,,,*79
$BDGSV,5,1,19,147,36,197,41,153,49,320,45,150,42,213,41,145,23,251,41*66
$BDGSV,5,2,19,143,59,185,41,144,31,112,41,141,44,126,41,142,45,231,41*67
$BDGSV,5,3,19,148,51,342,46,156,20,165,41,188,70,353,41,159,63,274,41*65
$BDGSV,5,4,19,160,52,026,41,169,79,184,41,170,24,147,41,175,35,317,41*6A
$BDGSV,5,5,19,178,55,006,41,179,26,160,41,180,33,185,41,,,,*64
$GPGGA,000149.00,2813.3397741,N,11259.4852344,E,1,19,0.8,71.3086,M,-16.713,M,,*46
$GPGSV,1,1,00,,,,,,,,,,,,,,,,*79
$BDGSV,5,1,19,147,36,197,41,153,49,320,45,150,42,213,41,145,23,251,41*66
$BDGSV,5,2,19,143,59,185,41,144,31,112,41,141,44,126,40,142,45,231,41*66
$BDGSV,5,3,19,148,51,342,46,156,20,165,41,188,70,353,41,159,63,274,41*65
$BDGSV,5,4,19,160,52,026,41,169,79,184,41,170,24,147,41,175,35,317,41*6A
$BDGSV,5,5,19,178,55,006,41,179,26,160,41,180,33,185,41,,,,*64
$GPGGA,000150.00,2813.3397742,N,11259.4852336,E,1,19,0.8,71.3076,M,-16.713,M,,*47
$GPGSV,1,1,00,,,,,,,,,,,,,,,,*79
$BDGSV,5,1,19,147,36,197,41,153,49,320,46,150,42,213,41,145,23,251,41*65
$BDGSV,5,2,19,143,59,185,41,144,31,112,41,141,44,126,41,142,45,231,41*67
$BDGSV,5,3,19,148,51,342,46,156,20,165,41,188,70,353,41,159,63,274,41*65
$BDGSV,5,4,19,160,52,026,41,169,79,184,41,170,24,147,41,175,35,317,41*6A
$BDGSV,5,5,19,178,55,006,41,179,26,160,41,180,33,185,41,,,,*64
$GPGGA,000151.00,2813.3397741,N,11259.4852320,E,1,19,0.8,71.3078,M,-16.713,M,,*4C
$GPGSV,1,1,00,,,,,,,,,,,,,,,,*79
$BDGSV,5,1,19,147,36,197,41,153,49,320,45,150,42,213,41,145,23,251,41*66
$BDGSV,5,2,19,143,59,185,41,144,31,112,41,141,44,126,41,142,45,231,41*67
$BDGSV,5,3,19,148,51,342,45,156,20,165,41,188,70,353,41,159,63,274,41*66
$BDGSV,5,4,19,160,52,026,41,169,79,184,41,170,24,147,41,175,35,317,41*6A
$BDGSV,5,5,19,178,55,006,41,179,26,160,41,180,33,185,41,,,,*64
$GPGGA,000152.00,2813.3397734,N,11259.4852307,E,1,19,0.8,71.3115,M,-16.713,M,,*42
$GPGSV,1,1,00,,,,,,,,,,,,,,,,*79
$BDGSV,5,1,19,147,36,197,41,153,49,320,46,150,42,213,41,145,23,251,41*65
$BDGSV,5,2,19,143,59,185,41,144,31,112,41,141,44,126,42,142,45,231,41*64
$BDGSV,5,3,19,148,51,342,46,156,20,165,41,188,70,353,41,159,63,274,41*65
$BDGSV,5,4,19,160,52,026,42,169,79,184,41,170,24,147,41,175,35,317,41*69
$BDGSV,5,5,19,178,55,006,41,179,26,160,41,180,33,185,41,,,,*64
$GPGGA,000153.00,2813.3397731,N,11259.4852285,E,1,19,0.8,71.3113,M,-16.713,M,,*4B
$GPGSV,1,1,00,,,,,,,,,,,,,,,,*79
$BDGSV,5,1,19,147,36,197,41,153,49,320,46,150,42,213,41,145,23,251,41*65
$BDGSV,5,2,19,143,59,185,41,144,31,112,41,141,44,126,41,142,45,231,41*67
$BDGSV,5,3,19,148,51,342,46,156,20,165,41,188,70,353,41,159,63,274,41*65
$BDGSV,5,4,19,160,52,026,41,169,79,184,41,170,24,147,41,175,35,317,41*6A
$BDGSV,5,5,19,178,55,006,41,179,26,160,41,180,33,185,41,,,,*64
$GPGGA,000154.00,2813.3397736,N,11259.4852279,E,1,19,0.8,71.3051,M,-16.713,M,,*4F
$GPGSV,1,1,00,,,,,,,,,,,,,,,,*79
$BDGSV,5,1,19,147,36,197,41,153,49,320,46,150,42,213,41,145,23,251,41*65
$BDGSV,5,2,19,143,59,185,41,144,31,112,41,141,44,126,41,142,45,231,41*67
$BDGSV,5,3,19,148,51,342,46,156,20,165,41,188,70,353,41,159,63,274,41*65
$BDGSV,5,4,19,160,52,026,41,169,79,184,41,170,24,147,41,175,35,317,41*6A
$BDGSV,5,5,19,178,55,006,41,179,26,160,41,180,33,185,42,,,,*67
$GPGGA,000155.00,2813.3397733,N,11259.4852269,E,1,19,0.8,71.2997,M,-16.713,M,,*48
$GPGSV,1,1,00,,,,,,,,,,,,,,,,*79
$BDGSV,5,1,19,147,36,197,41,153,49,320,46,150,42,213,41,145,23,251,41*65
$BDGSV,5,2,19,143,59,185,41,144,31,112,41,141,44,126,41,142,45,231,41*67
$BDGSV,5,3,19,148,51,342,46,156,20,165,41,188,70,353,41,159,63,274,41*65
$BDGSV,5,4,19,160,52,026,41,169,79,184,41,170,24,147,41,175,35,317,41*6A
$BDGSV,5,5,19,178,55,006,41,179,26,160,41,180,33,185,41,,,,*64
$GPGGA,000156.00,2813.3397731,N,11259.4852257,E,1,19,0.8,71.3025,M,-16.713,M,,*45
$GPGSV,1,1,00,,,,,,,,,,,,,,,,*79
$BDGSV,5,1,19,147,36,197,41,153,49,320,46,150,42,213,42,145,23,251,41*66
$BDGSV,5,2,19,143,59,185,41,144,31,112,41,141,44,126,41,142,45,231,41*67
$BDGSV,5,3,19,148,51,342,46,156,20,165,41,188,70,353,41,159,63,274,41*65
$BDGSV,5,4,19,160,52,026,41,169,79,184,41,170,24,147,41,175,35,317,41*6A
$BDGSV,5,5,19,178,55,006,41,179,26,160,41,180,33,185,41,,,,*64
$GPGGA,000157.00,2813.3397732,N,11259.4852237,E,1,19,0.8,71.2928,M,-16.713,M,,*44
$GPGSV,1,1,00,,,,,,,,,,,,,,,,*79
$BDGSV,5,1,19,147,36,197,41,153,49,320,40,150,42,213,41,145,23,251,41*63
$BDGSV,5,2,19,143,59,185,41,144,31,112,41,141,44,126,41,142,45,231,41*67
$BDGSV,5,3,19,148,51,342,40,156,20,165,41,188,70,353,41,159,63,274,41*63
$BDGSV,5,4,19,160,52,026,41,169,79,184,41,170,24,147,41,175,35,317,41*6A
$BDGSV,5,5,19,178,55,006,41,179,26,160,41,180,33,185,41,,,,*64
$GPGGA,000158.00,2813.3397730,N,11259.4852236,E,1,19,0.8,71.2931,M,-16.713,M,,*40
$GPGSV,1,1,00,,,,,,,,,,,,,,,,*79
$BDGSV,5,1,19,147,36,197,41,153,49,320,45,150,42,213,41,145,23,251,41*66
$BDGSV,5,2,19,143,59,185,41,144,31,112,41,141,44,126,41,142,45,231,41*67
$BDGSV,5,3,19,148,51,342,45,156,20,165,41,188,70,353,41,159,63,274,41*66
$BDGSV,5,4,19,160,52,026,41,169,79,184,41,170,24,147,41,175,35,317,40*6B
$BDGSV,5,5,19,178,55,006,41,179,26,160,41,180,33,185,41,,,,*64
$GPGGA,000159.00,2813.3397730,N,11259.4852240,E,1,19,0.8,71.2907,M,-16.713,M,,*45
$GPGSV,1,1,00,,,,,,,,,,,,,,,,*79
$BDGSV,5,1,19,147,36,197,41,153,49,320,46,150,42,213,41,145,23,251,41*65
$BDGSV,5,2,19,143,59,185,41,144,31,112,41,141,44,126,41,142,45,231,41*67
$BDGSV,5,3,19,148,51,342,46,156,20,165,41,188,70,353,41,159,63,274,41*65
$BDGSV,5,4,19,160,52,026,41,169,79,184,41,170,24,147,41,175,35,317,41*6A
$BDGSV,5,5,19,178,55,006,41,179,26,160,41,180,33,185,41,,,,*64
$GPGGA,000200.00,2813.3397731,N,11259.4852244,E,1,19,0.8,71.2858,M,-16.713,M,,*44
$GPGSV,1,1,00,,,,,,,,,,,,,,,,*79
$BDGSV,5,1,19,147,36,197,41,153,49,320,46,150,42,213,41,145,23,251,41*65
$BDGSV,5,2,19,143,59,185,41,144,31,112,41,141,44,126,41,142,45,231,41*67
$BDGSV,5,3,19,148,51,342,46,156,20,165,41,188,70,353,41,159,63,274,41*65
$BDGSV,5,4,19,160,52,026,41,169,79,184,41,170,24,147,41,175,35,317,41*6A
$BDGSV,5,5,19,178,55,006,41,179,26,160,41,180,33,185,41,,,,*64
$GPGGA,000201.00,2813.3397728,N,11259.4852237,E,1,19,0.8,71.2861,M,-16.713,M,,*43
$GPGSV,1,1,00,,,,,,,,,,,,,,,,*79
$BDGSV,5,1,19,147,36,197,41,153,49,320,40,150,42,213,41,145,23,251,41*63
$BDGSV,5,2,19,143,59,185,41,144,31,112,41,141,44,126,41,142,45,231,41*67
$BDGSV,5,3,19,148,51,342,40,156,20,165,41,188,70,353,41,159,63,274,41*63
$BDGSV,5,4,19,160,52,026,41,169,79,184,41,170,24,147,41,175,35,317,41*6A
$BDGSV,5,5,19,178,55,006,41,179,26,160,41,180,33,185,41,,,,*64
$GPGGA,000202.00,2813.3397717,N,11259.4852213,E,1,19,0.8,71.2908,M,-16.713,M,,*44
$GPGSV,1,1,00,,,,,,,,,,,,,,,,*79
$BDGSV,5,1,19,147,36,197,41,153,49,320,46,150,42,213,41,145,23,251,41*65
$BDGSV,5,2,19,143,59,185,41,144,31,112,41,141,44,126,41,142,45,231,41*67
$BDGSV,5,3,19,148,51,342,46,156,20,165,41,188,70,353,41,159,63,274,41*65
$BDGSV,5,4,19,160,52,026,41,169,79,184,41,170,24,147,41,175,35,317,41*6A
$BDGSV,5,5,19,178,55,006,41,179,26,160,41,180,33,185,41,,,,*64
$GPGGA,000203.00,2813.3397717,N,11259.4852193,E,1,19,0.8,71.2873,M,-16.713,M,,*43
$GPGSV,1,1,00,,,,,,,,,,,,,,,,*79
$BDGSV,5,1,19,147,36,197,41,153,49,320,46,150,42,213,41,145,23,251,41*65
$BDGSV,5,2,19,143,59,185,41,144,31,112,41,141,44,126,41,142,45,231,41*67
$BDGSV,5,3,19,148,51,342,46,156,20,165,41,188,70,353,41,159,63,274,41*65
$BDGSV,5,4,19,160,52,026,41,169,79,184,41,170,24,147,41,175,35,317,41*6A
$BDGSV,5,5,19,178,55,006,41,179,26,160,41,180,33,185,41,,,,*64
$GPGGA,000204.00,2813.3397722,N,11259.4852187,E,1,19,0.8,71.2813,M,-16.713,M,,*41
$GPGSV,1,1,00,,,,,,,,,,,,,,,,*79
$BDGSV,5,1,19,147,36,197,41,153,49,320,46,150,42,213,41,145,23,251,41*65
$BDGSV,5,2,19,143,59,185,41,144,31,112,40,141,44,126,42,142,45,231,41*65
$BDGSV,5,3,19,148,51,342,46,156,20,165,41,188,70,353,41,159,63,274,41*65
$BDGSV,5,4,19,160,52,026,41,169,79,184,41,170,24,147,41,175,35,317,41*6A
$BDGSV,5,5,19,178,55,006,40,179,26,160,41,180,33,185,41,,,,*65
$GPGGA,000205.00,2813.3397719,N,11259.4852174,E,1,19,0.8,71.2797,M,-16.713,M,,*47
$GPGSV,1,1,00,,,,,,,,,,,,,,,,*79
$BDGSV,5,1,19,147,36,197,41,153,49,320,40,150,42,213,41,145,23,251,41*63
$BDGSV,5,2,19,143,59,185,41,144,31,112,41,141,44,126,41,142,45,231,41*67
$BDGSV,5,3,19,148,51,342,42,156,20,165,41,188,70,353,41,159,63,274,41*61
$BDGSV,5,4,19,160,52,026,41,169,79,184,41,170,24,147,41,175,35,317,41*6A
$BDGSV,5,5,19,178,55,006,41,179,26,160,41,180,33,185,41,,,,*64
$GPGGA,000206.00,2813.3397718,N,11259.4852166,E,1,19,0.8,71.2782,M,-16.713,M,,*42
$GPGSV,1,1,00,,,,,,,,,,,,,,,,*79
$BDGSV,5,1,19,147,36,197,41,153,49,320,45,150,42,213,41,145,23,251,41*66
$BDGSV,5,2,19,143,59,185,41,144,31,112,41,141,44,126,41,142,45,231,41*67
$BDGSV,5,3,19,148,51,342,46,156,20,165,41,188,70,353,41,159,63,274,41*65
$BDGSV,5,4,19,160,52,026,41,169,79,184,41,170,24,147,41,175,35,317,41*6A
$BDGSV,5,5,19,178,55,006,41,179,26,160,41,180,32,185,41,,,,*65
$GPGGA,000207.00,2813.3397719,N,11259.4852166,E,1,19,0.8,71.2686,M,-16.713,M,,*47
$GPGSV,1,1,00,,,,,,,,,,,,,,,,*79
$BDGSV,5,1,19,147,36,197,41,153,49,320,46,150,42,213,41,145,23,251,41*65
$BDGSV,5,2,19,143,59,185,42,144,31,112,41,141,44,126,41,142,45,231,41*64
$BDGSV,5,3,19,148,51,342,46,156,20,165,41,188,70,353,41,159,63,274,41*65
$BDGSV,5,4,19,160,52,026,41,169,79,184,41,170,24,147,41,175,35,317,41*6A
$BDGSV,5,5,19,178,55,006,41,179,26,160,41,180,32,185,41,,,,*65
$GPGGA,000208.00,2813.3397711,N,11259.4852153,E,1,19,0.8,71.2712,M,-16.713,M,,*4A
$GPGSV,1,1,00,,,,,,,,,,,,,,,,*79
$BDGSV,5,1,19,147,36,197,41,153,49,320,46,150,42,213,41,145,23,251,41*65
$BDGSV,5,2,19,143,59,185,41,144,31,112,41,141,44,126,41,142,45,231,41*67
$BDGSV,5,3,19,148,51,342,46,156,20,165,41,188,70,353,41,159,63,274,41*65
$BDGSV,5,4,19,160,52,026,41,169,79,184,41,170,24,147,41,175,35,317,41*6A
$BDGSV,5,5,19,178,55,006,41,179,26,160,41,180,32,185,41,,,,*65
$GPGGA,000209.00,2813.3397704,N,11259.4852129,E,1,19,0.8,71.2730,M,-16.713,M,,*42
$GPGSV,1,1,00,,,,,,,,,,,,,,,,*79
$BDGSV,5,1,19,147,36,197,41,153,49,320,36,150,42,213,41,145,23,251,41*62
$BDGSV,5,2,19,143,59,185,41,144,31,112,41,141,44,126,41,142,45,231,41*67
$BDGSV,5,3,19,148,51,342,40,156,20,165,41,188,70,353,41,159,63,274,41*63
$BDGSV,5,4,19,160,52,026,41,169,79,184,41,170,24,147,41,175,35,317,41*6A
$BDGSV,5,5,19,178,55,006,41,179,26,160,41,180,32,185,41,,,,*65
$GPGGA,000210.00,2813.3397710,N,11259.4852128,E,1,19,0.8,71.2686,M,-16.713,M,,*42
$GPGSV,1,1,00,,,,,,,,,,,,,,,,*79
$BDGSV,5,1,19,147,36,197,41,153,49,320,46,150,42,213,41,145,23,251,41*65
$BDGSV,5,2,19,143,59,185,41,144,31,112,41,141,44,126,41,142,45,231,41*67
$BDGSV,5,3,19,148,51,342,46,156,20,165,41,188,70,353,41,159,63,274,41*65
$BDGSV,5,4,19,160,52,026,41,169,79,184,41,170,24,147,41,175,35,317,41*6A
$BDGSV,5,5,19,178,55,006,41,179,26,160,41,180,32,185,41,,,,*65
$GPGGA,000211.00,2813.3397712,N,11259.4852143,E,1,19,0.8,71.2577,M,-16.713,M,,*41
$GPGSV,1,1,00,,,,,,,,,,,,,,,,*79
$BDGSV,5,1,19,147,36,197,41,153,49,320,46,150,42,213,41,145,23,251,41*65
$BDGSV,5,2,19,143,59,185,41,144,31,112,41,141,44,126,41,142,45,231,41*67
$BDGSV,5,3,19,148,51,342,46,156,20,165,41,188,70,353,41,159,63,274,41*65
$BDGSV,5,4,19,160,52,026,41,169,79,184,41,170,24,147,41,175,35,317,41*6A
$BDGSV,5,5,19,178,55,006,41,179,26,160,41,180,32,185,41,,,,*65
$GPGGA,000212.00,2813.3397712,N,11259.4852135,E,1,19,0.8,71.2481,M,-16.713,M,,*4B
$GPGSV,1,1,00,,,,,,,,,,,,,,,,*79
$BDGSV,5,1,19,147,36,197,41,153,49,320,46,150,42,213,41,145,23,251,41*65
$BDGSV,5,2,19,143,59,185,41,144,31,112,41,141,44,126,41,142,45,231,41*67
$BDGSV,5,3,19,148,51,342,46,156,20,165,41,188,70,353,41,159,63,274,41*65
$BDGSV,5,4,19,160,52,026,41,169,79,184,41,170,24,147,41,175,35,317,41*6A
$BDGSV,5,5,19,178,55,006,41,179,26,160,41,180,32,185,41,,,,*65
$GPGGA,000213.00,2813.3397716,N,11259.4852123,E,1,19,0.8,71.2420,M,-16.713,M,,*42
$GPGSV,1,1,00,,,,,,,,,,,,,,,,*79
$BDGSV,5,1,19,147,36,197,41,153,49,320,40,150,42,213,41,145,23,251,41*63
$BDGSV,5,2,19,143,59,185,41,144,31,112,41,141,44,126,40,142,45,231,41*66
$BDGSV,5,3,19,148,51,342,44,156,20,165,41,188,70,353,41,159,63,274,41*67
$BDGSV,5,4,19,160,52,026,41,169,79,184,41,170,24,147,41,175,35,317,41*6A
$BDGSV,5,5,19,178,55,006,41,179,26,160,41,180,32,185,41,,,,*65
$GPGGA,000214.00,2813.3397722,N,11259.4852125,E,1,19,0.8,71.2326,M,-16.713,M,,*45
$GPGSV,1,1,00,,,,,,,,,,,,,,,,*79
$BDGSV,5,1,19,147,36,197,41,153,49,320,46,150,42,213,41,145,23,251,41*65
$BDGSV,5,2,19,143,59,185,41,144,31,112,41,141,44,126,41,142,45,231,41*67
$BDGSV,5,3,19,148,51,342,46,156,20,165,41,188,70,353,41,159,63,274,41*65
$BDGSV,5,4,19,160,52,026,41,169,79,184,41,170,24,147,41,175,35,317,41*6A
$BDGSV,5,5,19,178,55,006,41,179,26,160,41,180,32,185,41,,,,*65
$GPGGA,000215.00,2813.3397730,N,11259.4852138,E,1,19,0.8,71.2216,M,-16.713,M,,*49
$GPGSV,1,1,00,,,,,,,,,,,,,,,,*79
$BDGSV,5,1,19,147,36,197,41,153,49,320,46,150,42,213,41,145,23,251,41*65
$BDGSV,5,2,19,143,59,185,41,144,31,112,41,141,44,126,41,142,45,231,41*67
$BDGSV,5,3,19,148,51,342,46,156,20,165,41,188,70,353,41,159,63,274,41*65
$BDGSV,5,4,19,160,52,026,41,169,79,184,41,170,24,147,41,175,35,317,41*6A
$BDGSV,5,5,19,178,55,006,41,179,26,160,41,180,32,185,41,,,,*65
$GPGGA,000216.00,2813.3397729,N,11259.4852126,E,1,19,0.8,71.2214,M,-16.713,M,,*4F
$GPGSV,1,1,00,,,,,,,,,,,,,,,,*79
$BDGSV,5,1,19,147,36,197,41,153,49,320,46,150,42,213,41,145,23,251,41*65
$BDGSV,5,2,19,143,59,185,41,144,31,112,41,141,44,126,41,142,45,231,41*67
$BDGSV,5,3,19,148,51,342,46,156,20,165,41,188,70,353,41,159,63,274,41*65
$BDGSV,5,4,19,160,52,026,41,169,79,184,41,170,24,147,41,175,35,317,41*6A
$BDGSV,5,5,19,178,55,006,41,179,26,160,41,180,32,185,41,,,,*65
$GPGGA,000217.00,2813.3397724,N,11259.4852107,E,1,19,0.8,71.2242,M,-16.713,M,,*43
$GPGSV,1,1,00,,,,,,,,,,,,,,,,*79
$BDGSV,5,1,19,147,36,197,41,153,49,320,46,150,42,213,41,145,23,251,41*65
$BDGSV,5,2,19,143,59,185,41,144,31,112,41,141,44,126,41,142,45,231,41*67
$BDGSV,5,3,19,148,51,342,46,156,20,165,41,188,70,353,41,159,63,274,41*65
$BDGSV,5,4,19,160,52,026,41,169,79,184,41,170,24,147,41,175,35,317,41*6A
$BDGSV,5,5,19,178,55,006,41,179,26,160,41,180,32,185,41,,,,*65
$GPGGA,000218.00,2813.3397730,N,11259.4852094,E,1,19,0.8,71.2212,M,-16.713,M,,*47
$GPGSV,1,1,00,,,,,,,,,,,,,,,,*79
$BDGSV,5,1,19,147,36,197,41,153,49,320,46,150,42,213,41,145,23,251,41*65
$BDGSV,5,2,19,143,59,185,41,144,31,112,41,141,44,126,41,142,45,231,41*67
$BDGSV,5,3,19,148,51,342,46,156,20,165,41,188,70,353,41,159,63,274,41*65
$BDGSV,5,4,19,160,52,026,41,169,79,184,41,170,24,147,41,175,35,317,41*6A
$BDGSV,5,5,19,178,55,006,41,179,26,160,41,180,32,185,41,,,,*65
$GPGGA,000219.00,2813.3397739,N,11259.4852109,E,1,19,0.8,71.2109,M,-16.713,M,,*43
$GPGSV,1,1,00,,,,,,,,,,,,,,,,*79
$BDGSV,5,1,19,147,36,197,41,153,49,320,46,150,42,213,41,145,23,251,41*65
$BDGSV,5,2,19,143,59,185,41,144,31,112,41,141,44,126,41,142,45,231,41*67
$BDGSV,5,3,19,148,51,342,46,156,20,165,41,188,70,353,41,159,63,274,41*65
$BDGSV,5,4,19,160,52,026,41,169,79,184,41,170,24,147,41,175,35,317,41*6A
$BDGSV,5,5,19,178,55,006,41,179,26,160,41,180,32,185,41,,,,*65
$GPGGA,000220.00,2813.3397748,N,11259.4852113,E,1,19,0.8,71.2020,M,-16.713,M,,*4E
$GPGSV,1,1,00,,,,,,,,,,,,,,,,*79
$BDGSV,5,1,19,147,36,197,41,153,49,320,45,150,42,213,41,145,23,251,41*66
$BDGSV,5,2,19,143,59,185,41,144,31,112,41,141,44,126,41,142,45,231,41*67
$BDGSV,5,3,19,148,51,342,45,156,20,165,41,188,70,353,41,159,63,274,41*66
$BDGSV,5,4,19,160,52,026,41,169,79,184,41,170,24,147,41,175,35,317,41*6A
$BDGSV,5,5,19,178,55,006,41,179,26,160,41,180,32,185,41,,,,*65
$GPGGA,000221.00,2813.3397754,N,11259.4852101,E,1,19,0.8,71.1998,M,-16.713,M,,*48
$GPGSV,1,1,00,,,,,,,,,,,,,,,,*79
$BDGSV,5,1,19,147,36,197,41,153,49,320,40,150,42,213,41,145,23,251,41*63
$BDGSV,5,2,19,143,59,185,40,144,31,112,41,141,44,126,41,142,45,231,41*66
$BDGSV,5,3,19,148,51,342,40,156,20,165,41,188,70,353,41,159,63,274,41*63
$BDGSV,5,4,19,160,52,026,41,169,79,184,41,170,24,147,41,175,35,317,41*6A
$BDGSV,5,5,19,178,55,006,41,179,26,160,40,180,32,185,41,,,,*64
$GPGGA,000222.00,2813.3397750,N,11259.4852094,E,1,19,0.8,71.2008,M,-16.713,M,,*41
$GPGSV,1,1,00,,,,,,,,,,,,,,,,*79
$BDGSV,5,1,19,147,36,197,41,153,49,320,46,150,42,213,41,145,23,251,41*65
$BDGSV,5,2,19,143,59,185,41,144,31,112,41,141,44,126,41,142,45,231,41*67
$BDGSV,5,3,19,148,51,342,46,156,20,165,41,188,70,353,41,159,63,274,41*65
$BDGSV,5,4,19,160,52,026,41,169,79,184,41,170,24,147,41,175,35,317,41*6A
$BDGSV,5,5,19,178,55,006,41,179,26,160,41,180,32,185,41,,,,*65
$GPGGA,000223.00,2813.3397743,N,11259.4852078,E,1,19,0.8,71.2002,M,-16.713,M,,*4A
$GPGSV,1,1,00,,,,,,,,,,,,,,,,*79
$BDGSV,5,1,19,147,36,197,41,153,49,320,45,150,42,213,41,145,23,251,41*66
$BDGSV,5,2,19,143,59,185,41,144,31,112,41,141,44,126,41,142,45,231,41*67
$BDGSV,5,3,19,148,51,342,46,156,20,165,40,188,70,353,41,159,63,274,41*64
$BDGSV,5,4,19,160,52,026,41,169,79,184,41,170,24,147,41,175,35,317,41*6A
$BDGSV,5,5,19,178,55,006,40,179,26,160,41,180,32,185,41,,,,*64
$GPGGA,000224.00,2813.3397736,N,11259.4852064,E,1,19,0.8,71.1968,M,-16.713,M,,*44
$GPGSV,1,1,00,,,,,,,,,,,,,,,,*79
$BDGSV,5,1,19,147,36,197,41,153,49,320,45,150,42,213,41,145,23,251,41*66
$BDGSV,5,2,19,143,59,185,41,144,31,112,41,141,44,126,41,142,45,231,41*67
$BDGSV,5,3,19,148,51,342,45,156,20,165,41,188,70,353,41,159,63,274,41*66
$BDGSV,5,4,19,160,52,026,41,169,79,184,41,170,24,147,41,175,35,317,41*6A
$BDGSV,5,5,19,178,55,006,40,179,26,160,41,180,32,185,41,,,,*64
$GPGGA,000225.00,2813.3397735,N,11259.4852066,E,1,19,0.8,71.1863,M,-16.713,M,,*4E
$GPGSV,1,1,00,,,,,,,,,,,,,,,,*79
$BDGSV,5,1,19,147,36,197,41,153,49,320,46,150,42,213,41,145,23,251,41*65
$BDGSV,5,2,19,143,59,185,41,144,31,112,41,141,44,126,41,142,45,231,41*67
$BDGSV,5,3,19,148,51,342,46,156,20,165,41,188,70,353,41,159,63,274,41*65
$BDGSV,5,4,19,160,52,026,41,169,79,184,41,170,24,147,41,175,35,317,41*6A
$BDGSV,5,5,19,178,55,006,41,179,26,160,41,180,32,185,41,,,,*65
$GPGGA,000226.00,2813.3397737,N,11259.4852063,E,1,19,0.8,71.1765,M,-16.713,M,,*43
$GPGSV,1,1,00,,,,,,,,,,,,,,,,*79
$BDGSV,5,1,19,147,36,197,40,153,49,320,46,150,42,213,41,145,23,251,41*64
$BDGSV,5,2,19,143,59,185,41,144,31,112,41,141,44,126,40,142,45,231,41*66
$BDGSV,5,3,19,148,51,342,46,156,20,165,41,188,70,353,41,159,63,274,41*65
$BDGSV,5,4,19,160,52,026,41,169,79,184,41,170,24,147,41,175,35,317,41*6A
$BDGSV,5,5,19,178,55,006,41,179,26,160,41,180,32,185,41,,,,*65
$GPGGA,000227.00,2813.3397728,N,11259.4852044,E,1,19,0.8,71.1764,M,-16.713,M,,*48
$GPGSV,1,1,00,,,,,,,,,,,,,,,,*79
$BDGSV,5,1,19,147,36,197,41,153,49,320,45,150,42,213,41,145,23,251,41*66
$BDGSV,5,2,19,143,59,185,41,144,31,112,41,141,44,126,41,142,45,231,41*67
$BDGSV,5,3,19,148,51,342,46,156,20,165,41,188,70,353,41,159,63,274,41*65
$BDGSV,5,4,19,160,52,026,41,169,79,184,41,170,24,147,41,175,35,317,41*6A
$BDGSV,5,5,19,178,55,006,41,179,26,160,41,180,32,185,41,,,,*65
$GPGGA,000228.00,2813.3397711,N,11259.4852033,E,1,19,0.8,71.1790,M,-16.713,M,,*46
$GPGSV,1,1,00,,,,,,,,,,,,,,,,*79
$BDGSV,5,1,19,147,36,197,41,153,49,320,46,150,42,213,41,145,23,251,41*65
$BDGSV,5,2,19,143,59,185,41,144,31,112,41,141,44,126,41,142,45,231,41*67
$BDGSV,5,3,19,148,51,342,46,156,20,165,41,188,70,353,41,159,63,274,42*66
$BDGSV,5,4,19,160,52,026,41,169,79,184,41,170,24,147,41,175,35,317,41*6A
$BDGSV,5,5,19,178,55,006,41,179,26,160,41,180,32,185,41,,,,*65
$GPGGA,000229.00,2813.3397694,N,11259.4852035,E,1,19,0.8,71.1877,M,-16.713,M,,*4B
$GPGSV,1,1,00,,,,,,,,,,,,,,,,*79
$BDGSV,5,1,19,147,36,197,41,153,49,320,44,150,42,213,41,145,23,251,41*67
$BDGSV,5,2,19,143,59,185,41,144,31,112,41,141,44,126,41,142,45,231,41*67
$BDGSV,5,3,19,148,51,342,44,156,20,165,41,188,70,353,41,159,63,274,41*67
$BDGSV,5,4,19,160,52,026,41,169,79,184,41,170,24,147,41,175,35,317,41*6A
$BDGSV,5,5,19,178,55,006,41,179,26,160,41,180,32,185,41,,,,*65
$GPGGA,000230.00,2813.3397694,N,11259.4852041,E,1,19,0.8,71.1762,M,-16.713,M,,*4B
$GPGSV,1,1,00,,,,,,,,,,,,,,,,*79
$BDGSV,5,1,19,147,36,197,41,153,49,320,46,150,42,213,41,145,23,251,41*65
$BDGSV,5,2,19,143,59,185,41,144,31,112,41,141,44,126,41,142,45,231,41*67
$BDGSV,5,3,19,148,51,342,46,156,20,165,41,188,70,353,41,159,63,274,41*65
$BDGSV,5,4,19,160,52,026,41,169,79,184,41,170,24,147,41,175,35,317,41*6A
$BDGSV,5,5,19,178,55,006,41,179,26,160,41,180,32,185,41,,,,*65
$GPGGA,000231.00,2813.3397693,N,11259.4852037,E,1,19,0.8,71.1728,M,-16.713,M,,*42
$GPGSV,1,1,00,,,,,,,,,,,,,,,,*79
$BDGSV,5,1,19,147,36,197,41,153,49,320,46,150,42,213,41,145,23,251,41*65
$BDGSV,5,2,19,143,59,185,41,144,31,112,41,141,44,126,41,142,45,231,41*67
$BDGSV,5,3,19,148,51,342,46,156,20,165,41,188,70,353,41,159,63,274,41*65
$BDGSV,5,4,19,160,52,026,41,169,79,184,41,170,24,147,41,175,35,317,41*6A
$BDGSV,5,5,19,178,55,006,41,179,26,160,41,180,32,185,41,,,,*65
$GPGGA,000232.00,2813.3397690,N,11259.4852024,E,1,19,0.8,71.1711,M,-16.713,M,,*4A
$GPGSV,1,1,00,,,,,,,,,,,,,,,,*79
$BDGSV,5,1,19,147,36,197,41,153,49,320,46,150,42,213,41,145,23,251,41*65
$BDGSV,5,2,19,143,59,185,41,144,31,112,41,141,44,126,41,142,45,231,41*67
$BDGSV,5,3,19,148,51,342,46,156,20,165,41,188,70,353,41,159,63,274,41*65
$BDGSV,5,4,19,160,52,026,41,169,78,184,41,170,24,147,41,175,35,317,41*6B
$BDGSV,5,5,19,178,55,006,41,179,26,160,41,180,32,185,41,,,,*65
$GPGGA,000233.00,2813.3397687,N,11259.4852019,E,1,19,0.8,71.1686,M,-16.713,M,,*4C
$GPGSV,1,1,00,,,,,,,,,,,,,,,,*79
$BDGSV,5,1,19,147,36,197,41,153,49,320,43,150,42,213,41,145,23,251,41*60
$BDGSV,5,2,19,143,59,185,41,144,31,112,41,141,44,126,41,142,45,231,41*67
$BDGSV,5,3,19,148,51,342,42,156,20,165,41,188,70,353,41,159,63,275,41*60
$BDGSV,5,4,19,160,52,026,41,169,78,184,41,170,24,147,41,175,35,317,41*6B
$BDGSV,5,5,19,178,55,006,41,179,26,160,41,180,32,185,41,,,,*65
$GPGGA,000234.00,2813.3397675,N,11259.4852023,E,1,19,0.8,71.1598,M,-16.713,M,,*43
$GPGSV,1,1,00,,,,,,,,,,,,,,,,*79
$BDGSV,5,1,19,147,36,197,41,153,49,320,46,150,42,213,41,145,23,251,41*65
$BDGSV,5,2,19,143,59,185,41,144,31,112,41,141,44,126,41,142,45,231,41*67
$BDGSV,5,3,19,148,51,342,46,156,20,165,41,188,70,353,41,159,63,275,41*64
$BDGSV,5,4,19,160,52,026,41,169,78,184,41,170,24,147,41,175,35,317,42*68
$BDGSV,5,5,19,178,55,006,41,179,26,160,41,180,32,185,41,,,,*65
$GPGGA,000235.00,2813.3397672,N,11259.4852022,E,1,19,0.8,71.1580,M,-16.713,M,,*4D
$GPGSV,1,1,00,,,,,,,,,,,,,,,,*79
$BDGSV,5,1,19,147,36,197,41,153,49,320,45,150,42,213,41,145,23,251,41*66
$BDGSV,5,2,19,143,59,185,41,144,31,112,41,141,44,126,41,142,45,231,41*67
$BDGSV,5,3,19,148,51,342,46,156,20,165,40,188,70,353,41,159,63,275,41*65
$BDGSV,5,4,19,160,52,026,41,169,78,184,41,170,24,147,41,175,35,317,41*6B
$BDGSV,5,5,19,178,55,006,41,179,26,160,41,180,32,185,41,,,,*65
$GPGGA,000236.00,2813.3397659,N,11259.4852005,E,1,19,0.8,71.1663,M,-16.713,M,,*4C
$GPGSV,1,1,00,,,,,,,,,,,,,,,,*79
$BDGSV,5,1,19,147,36,197,41,153,49,320,46,150,42,213,41,145,23,251,41*65
$BDGSV,5,2,19,143,59,185,41,144,31,112,41,141,44,126,41,142,45,231,41*67
$BDGSV,5,3,19,148,51,342,46,156,20,165,41,188,70,353,41,159,63,275,41*64
$BDGSV,5,4,19,160,52,026,41,169,78,184,41,170,24,147,41,175,35,317,41*6B
$BDGSV,5,5,19,178,55,006,41,179,26,160,41,180,32,185,41,,,,*65
$GPGGA,000237.00,2813.3397672,N,11259.4851991,E,1,19,0.8,71.1616,M,-16.713,M,,*41
$GPGSV,1,1,00,,,,,,,,,,,,,,,,*79
$BDGSV,5,1,19,147,36,197,41,153,49,320,42,150,42,213,41,145,23,251,41*61
$BDGSV,5,2,19,143,59,185,41,144,31,112,41,141,44,126,41,142,45,231,41*67
$BDGSV,5,3,19,148,51,342,42,156,20,165,41,188,70,353,41,159,63,275,41*60
$BDGSV,5,4,19,160,52,026,41,169,78,184,41,170,24,147,41,175,35,317,41*6B
$BDGSV,5,5,19,178,55,006,40,179,26,160,41,180,32,185,41,,,,*64
$GPGGA,000238.00,2813.3397667,N,11259.4851997,E,1,19,0.8,71.1520,M,-16.713,M,,*4A
$GPGSV,1,1,00,,,,,,,,,,,,,,,,*79
$BDGSV,5,1,19,147,36,197,41,153,49,320,46,150,42,213,41,145,23,251,41*65
$BDGSV,5,2,19,143,59,185,41,144,31,112,41,141,44,126,41,142,45,231,41*67
$BDGSV,5,3,19,148,51,342,46,156,20,165,41,188,70,353,41,159,63,275,41*64
$BDGSV,5,4,19,160,52,026,41,169,78,184,41,170,24,147,41,175,35,317,41*6B
$BDGSV,5,5,19,178,55,006,41,179,27,160,41,180,32,185,41,,,,*64
$GPGGA,000239.00,2813.3397666,N,11259.4852007,E,1,19,0.8,71.1434,M,-16.713,M,,*4D
$GPGSV,1,1,00,,,,,,,,,,,,,,,,*79
$BDGSV,5,1,19,147,36,197,41,153,49,320,45,150,42,213,40,145,23,251,40*66
$BDGSV,5,2,19,143,59,185,41,144,31,112,41,141,44,126,41,142,45,231,41*67
$BDGSV,5,3,19,148,51,342,46,156,20,165,41,188,70,353,40,159,63,275,40*64
$BDGSV,5,4,19,160,52,026,41,169,78,184,40,170,24,147,41,175,35,317,41*6A
$BDGSV,5,5,19,178,55,006,41,179,27,160,41,180,32,185,41,,,,*64
$GPGGA,000240.00,2813.3397662,N,11259.4852000,E,1,19,0.8,71.1400,M,-16.713,M,,*47
$GPGSV,1,1,00,,,,,,,,,,,,,,,,*79
$BDGSV,5,1,19,147,36,197,41,153,49,320,46,150,42,213,41,145,23,251,41*65
$BDGSV,5,2,19,143,59,185,41,144,31,112,41,141,44,126,41,142,45,231,40*66
$BDGSV,5,3,19,148,51,342,46,156,20,165,41,188,70,353,41,159,63,275,41*64
$BDGSV,5,4,19,160,52,026,41,169,78,183,41,170,24,147,41,175,35,317,41*6C
$BDGSV,5,5,19,178,55,006,41,179,27,160,41,180,32,185,41,,,,*64
$GPGGA,000241.00,2813.3397654,N,11259.4852005,E,1,19,0.8,71.1328,M,-16.713,M,,*4B
$GPGSV,1,1,00,,,,,,,,,,,,,,,,*79
