$GPGGA,000045.00,2813.3394182,N,11259.4856817,E,1,13,0.9,69.0232,M,-16.713,M,,*44
$GPGSV,1,1,00,,,,,,,,,,,,,,,,*79
$BDGSV,4,1,16,147,70,127,41,150,42,213,41,153,28,132,41,145,23,251,41*63
$BDGSV,4,2,16,143,59,185,41,144,31,112,41,141,44,126,41,142,45,231,41*69
$BDGSV,4,3,16,188,70,352,41,159,18,045,41,169,79,184,41,170,24,147,41*60
$BDGSV,4,4,16,175,35,317,41,178,55,006,41,179,26,160,41,180,33,185,41*6E
$GPGGA,000046.00,2813.3390105,N,11259.4857548,E,1,14,0.8,67.5331,M,-16.713,M,,*45
$GPGSV,1,1,00,,,,,,,,,,,,,,,,*79
$BDGSV,5,1,17,147,70,127,41,150,42,213,41,153,28,132,41,145,23,251,41*63
$BDGSV,5,2,17,143,59,185,41,144,31,112,41,141,44,126,41,142,45,231,41*69
$BDGSV,5,3,17,188,70,352,41,159,18,045,41,160,52,026,41,169,79,184,41*66
$BDGSV,5,4,17,170,24,147,41,175,35,317,41,178,55,006,41,179,26,160,41*69
$BDGSV,5,5,17,180,33,185,41,,,,,,,,,,,,*6E
$GPGGA,000047.00,2813.3399246,N,11259.4854806,E,1,14,0.8,69.9789,M,-16.713,M,,*48
$GPGSV,1,1,00,,,,,,,,,,,,,,,,*79
$BDGSV,5,1,17,147,70,127,40,150,42,213,41,153,28,132,41,145,23,251,41*62
$BDGSV,5,2,17,143,59,185,41,144,31,112,41,141,44,126,41,142,45,231,41*69
$BDGSV,5,3,17,188,70,352,41,159,18,045,41,160,52,026,41,169,79,184,41*66
$BDGSV,5,4,17,170,24,147,41,175,35,317,41,178,55,006,41,179,26,160,41*69
$BDGSV,5,5,17,180,33,185,41,,,,,,,,,,,,*6E
$GPGGA,000048.00,2813.3399105,N,11259.4854816,E,1,14,0.8,70.3521,M,-16.713,M,,*40
$GPGSV,1,1,00,,,,,,,,,,,,,,,,*79
$BDGSV,5,1,17,147,70,127,41,150,42,213,41,153,28,132,41,145,23,251,41*63
$BDGSV,5,2,17,143,59,185,41,144,31,112,41,141,44,126,41,142,45,231,41*69
$BDGSV,5,3,17,188,70,352,41,159,18,045,41,160,52,026,41,169,79,184,41*66
$BDGSV,5,4,17,170,24,147,41,175,35,317,41,178,55,006,41,179,26,160,41*69
$BDGSV,5,5,17,180,33,185,41,,,,,,,,,,,,*6E
$GPGGA,000049.00,2813.3399078,N,11259.4855057,E,1,14,0.8,70.4501,M,-16.713,M,,*43
$GPGSV,1,1,00,,,,,,,,,,,,,,,,*79
$BDGSV,5,1,17,147,70,127,41,150,42,213,41,153,28,132,41,145,23,251,41*63
$BDGSV,5,2,17,143,59,185,41,144,31,112,41,141,44,126,41,142,45,231,41*69
$BDGSV,5,3,17,188,70,352,41,159,18,045,41,160,52,026,41,169,79,184,41*66
$BDGSV,5,4,17,170,24,147,41,175,35,317,41,178,55,006,41,179,26,160,41*69
$BDGSV,5,5,17,180,33,185,41,,,,,,,,,,,,*6E
$GPGGA,000050.00,2813.3399146,N,11259.4855193,E,1,14,0.8,70.5540,M,-16.713,M,,*4A
$GPGSV,1,1,00,,,,,,,,,,,,,,,,*79
$BDGSV,5,1,18,147,70,127,41,150,42,213,41,153,28,132,41,145,23,251,41*6C
$BDGSV,5,2,18,143,59,185,41,144,31,112,41,141,44,126,41,142,45,231,41*66
$BDGSV,5,3,18,148,73,162,41,188,70,352,41,159,18,045,41,160,52,026,41*68
$BDGSV,5,4,18,169,79,184,41,170,24,147,41,175,35,317,41,178,55,006,41*67
$BDGSV,5,5,18,179,26,160,41,180,33,185,41,,,,,,,,*68
$GPGGA,000051.00,2813.3399131,N,11259.4854898,E,1,14,0.8,70.5369,M,-16.713,M,,*45
$GPGSV,1,1,00,,,,,,,,,,,,,,,,*79
$BDGSV,5,1,18,147,70,127,41,150,42,213,41,153,28,132,41,145,23,251,41*6C
$BDGSV,5,2,18,143,59,185,41,144,31,112,41,141,44,126,41,142,45,231,41*66
$BDGSV,5,3,18,148,73,162,41,188,70,352,41,159,18,045,41,160,52,026,41*68
$BDGSV,5,4,18,169,79,184,41,170,24,147,41,175,35,317,41,178,55,006,41*67
$BDGSV,5,5,18,179,26,160,41,180,33,185,41,,,,,,,,*68
$GPGGA,000052.00,2813.3398898,N,11259.4854772,E,1,15,0.8,70.5202,M,-16.713,M,,*4B
$GPGSV,1,1,00,,,,,,,,,,,,,,,,*79
$BDGSV,5,1,18,147,70,127,41,150,42,213,41,153,28,132,41,145,23,251,41*6C
$BDGSV,5,2,18,143,59,185,41,144,31,112,41,141,44,126,41,142,45,231,41*66
$BDGSV,5,3,18,148,52,342,41,188,70,352,41,159,18,045,41,160,52,026,41*6B
$BDGSV,5,4,18,169,79,184,41,170,24,147,41,175,35,317,41,178,55,006,41*67
$BDGSV,5,5,18,179,26,160,41,180,33,185,41,,,,,,,,*68
$GPGGA,000053.00,2813.3398889,N,11259.4855039,E,1,15,0.8,70.4823,M,-16.713,M,,*4B
$GPGSV,1,1,00,,,,,,,,,,,,,,,,*79
$BDGSV,5,1,18,147,70,127,41,150,42,213,41,153,28,132,41,145,23,251,41*6C
$BDGSV,5,2,18,143,59,185,41,144,31,112,40,141,44,126,41,142,45,231,41*67
$BDGSV,5,3,18,148,52,342,41,188,70,352,41,159,18,045,41,160,52,026,41*6B
$BDGSV,5,4,18,169,79,184,41,170,24,147,41,175,35,317,41,178,55,006,41*67
$BDGSV,5,5,18,179,26,160,41,180,33,185,41,,,,,,,,*68
$GPGGA,000054.00,2813.3398770,N,11259.4855328,E,1,15,0.8,70.5476,M,-16.713,M,,*4B
$GPGSV,1,1,00,,,,,,,,,,,,,,,,*79
$BDGSV,5,1,18,147,70,127,41,150,42,213,41,153,28,132,41,145,23,251,41*6C
$BDGSV,5,2,18,143,59,185,41,144,31,112,41,141,44,126,41,142,45,231,41*66
$BDGSV,5,3,18,148,52,342,41,188,70,352,41,159,18,045,41,160,52,026,41*6B
$BDGSV,5,4,18,169,79,184,41,170,24,147,41,175,35,317,41,178,55,006,41*67
$BDGSV,5,5,18,179,26,160,41,180,33,185,41,,,,,,,,*68
$GPGGA,000055.00,2813.3398683,N,11259.4855480,E,1,15,0.8,70.5219,M,-16.713,M,,*4D
$GPGSV,1,1,00,,,,,,,,,,,,,,,,*79
$BDGSV,5,1,18,147,70,127,41,150,42,213,41,153,28,132,41,145,23,251,41*6C
$BDGSV,5,2,18,143,59,185,41,144,31,112,41,141,44,126,41,142,45,231,41*66
$BDGSV,5,3,18,148,52,342,41,188,70,352,41,159,18,045,41,160,52,026,41*6B
$BDGSV,5,4,18,169,79,184,41,170,24,147,41,175,35,317,41,178,55,006,41*67
$BDGSV,5,5,18,179,26,160,41,180,33,185,41,,,,,,,,*68
$GPGGA,000056.00,2813.3398552,N,11259.4855550,E,1,15,0.8,70.5093,M,-16.713,M,,*4D
$GPGSV,1,1,00,,,,,,,,,,,,,,,,*79
$BDGSV,5,1,18,147,70,127,41,150,42,213,41,153,28,132,41,145,23,251,41*6C
$BDGSV,5,2,18,143,59,185,41,144,31,112,41,141,44,126,41,142,45,231,41*66
$BDGSV,5,3,18,148,52,342,41,188,70,352,41,159,18,045,41,160,52,026,41*6B
$BDGSV,5,4,18,169,79,184,41,170,24,147,41,175,35,317,41,178,55,006,41*67
$BDGSV,5,5,18,179,26,160,41,180,33,185,41,,,,,,,,*68
$GPGGA,000057.00,2813.3398367,N,11259.4855677,E,1,15,0.8,70.5744,M,-16.713,M,,*47
$GPGSV,1,1,00,,,,,,,,,,,,,,,,*79
$BDGSV,5,1,18,147,70,127,41,150,42,213,41,153,28,132,41,145,23,251,41*6C
$BDGSV,5,2,18,143,59,185,41,144,31,112,41,141,44,126,41,142,45,231,41*66
$BDGSV,5,3,18,148,52,342,41,188,70,352,41,159,18,045,41,160,52,026,41*6B
$BDGSV,5,4,18,169,79,184,41,170,24,147,41,175,35,317,41,178,55,006,41*67
$BDGSV,5,5,18,179,26,160,41,180,33,185,41,,,,,,,,*68
$GPGGA,000058.00,2813.3398455,N,11259.4855789,E,1,15,0.8,70.5030,M,-16.713,M,,*4A
$GPGSV,1,1,00,,,,,,,,,,,,,,,,*79
$BDGSV,5,1,18,147,70,127,41,150,42,213,41,153,28,132,41,145,23,251,41*6C
$BDGSV,5,2,18,143,59,185,41,144,31,112,42,141,44,126,41,142,45,231,42*66
$BDGSV,5,3,18,148,52,342,41,188,70,352,41,159,18,045,42,160,52,026,41*68
$BDGSV,5,4,18,169,79,184,41,170,24,147,41,175,35,317,41,178,55,006,41*67
$BDGSV,5,5,18,179,26,160,41,180,33,185,41,,,,,,,,*68
$GPGGA,000059.00,2813.3398491,N,11259.4855865,E,1,15,0.8,70.4775,M,-16.713,M,,*49
$GPGSV,1,1,00,,,,,,,,,,,,,,,,*79
$BDGSV,5,1,18,147,70,127,41,150,42,213,41,153,28,132,41,145,23,251,41*6C
$BDGSV,5,2,18,143,59,185,41,144,31,112,41,141,44,126,41,142,45,231,41*66
$BDGSV,5,3,18,148,52,342,41,188,70,352,41,159,18,045,41,160,52,026,41*6B
$BDGSV,5,4,18,169,79,184,41,170,24,147,41,175,35,317,41,178,55,006,40*66
$BDGSV,5,5,18,179,26,160,41,180,33,185,41,,,,,,,,*68
$GPGGA,000100.00,2813.3398391,N,11259.4854993,E,1,15,0.8,70.4854,M,-16.713,M,,*46
$GPGSV,1,1,00,,,,,,,,,,,,,,,,*79
$BDGSV,5,1,18,147,70,127,41,150,42,213,41,153,28,132,41,145,23,251,41*6C
$BDGSV,5,2,18,143,59,185,41,144,31,112,41,141,44,126,41,142,45,231,41*66
$BDGSV,5,3,18,148,52,342,41,188,70,352,41,159,18,045,41,160,52,026,41*6B
$BDGSV,5,4,18,169,79,184,41,170,24,147,41,175,35,317,41,178,55,006,41*67
$BDGSV,5,5,18,179,26,160,41,180,33,185,41,,,,,,,,*68
$GPGGA,000101.00,2813.3398206,N,11259.4854199,E,1,15,0.8,70.5764,M,-16.713,M,,*47
$GPGSV,1,1,00,,,,,,,,,,,,,,,,*79
$BDGSV,5,1,18,147,36,197,41,150,42,213,41,153,28,132,41,145,23,251,41*65
$BDGSV,5,2,18,143,59,185,41,144,31,112,41,141,44,126,41,142,45,231,41*66
$BDGSV,5,3,18,148,52,342,41,188,70,352,41,159,18,045,41,160,52,026,41*6B
$BDGSV,5,4,18,169,79,184,42,170,24,147,41,175,35,317,41,178,55,006,41*64
$BDGSV,5,5,18,179,26,160,41,180,33,185,41,,,,,,,,*68
$GPGGA,000102.00,2813.3398080,N,11259.4853717,E,1,15,0.8,70.6456,M,-16.713,M,,*4E
$GPGSV,1,1,00,,,,,,,,,,,,,,,,*79
$BDGSV,5,1,18,147,36,197,41,150,42,213,41,153,28,132,41,145,23,251,41*65
$BDGSV,5,2,18,143,59,185,41,144,31,112,41,141,44,126,41,142,45,231,41*66
$BDGSV,5,3,18,148,52,342,41,188,70,352,41,159,18,045,41,160,52,026,41*6B
$BDGSV,5,4,18,169,79,184,41,170,24,147,41,175,35,317,41,178,55,006,41*67
$BDGSV,5,5,18,179,26,160,41,180,33,185,41,,,,,,,,*68
$GPGGA,000103.00,2813.3398141,N,11259.4853686,E,1,15,0.8,70.6314,M,-16.713,M,,*4B
$GPGSV,1,1,00,,,,,,,,,,,,,,,,*79
$BDGSV,5,1,18,147,36,197,41,150,42,213,41,153,28,132,41,145,23,251,41*65
$BDGSV,5,2,18,143,59,185,41,144,31,112,41,141,44,126,41,142,45,231,41*66
$BDGSV,5,3,18,148,52,342,41,188,70,352,42,159,18,045,41,160,52,026,41*68
$BDGSV,5,4,18,169,79,184,41,170,24,147,41,175,35,317,41,178,55,006,41*67
$BDGSV,5,5,18,179,26,160,41,180,33,185,41,,,,,,,,*68
$GPGGA,000104.00,2813.3398066,N,11259.4853193,E,1,15,0.8,70.6641,M,-16.713,M,,*4E
$GPGSV,1,1,00,,,,,,,,,,,,,,,,*79
$BDGSV,5,1,18,147,36,197,41,150,42,213,41,153,49,320,41,145,23,251,41*63
$BDGSV,5,2,18,143,59,185,41,144,31,112,41,141,44,126,41,142,45,231,41*66
$BDGSV,5,3,18,148,52,342,41,188,70,352,41,159,18,045,41,160,52,026,41*6B
$BDGSV,5,4,18,169,79,184,41,170,24,147,41,175,35,317,41,178,55,006,41*67
$BDGSV,5,5,18,179,26,160,41,180,33,185,41,,,,,,,,*68
$GPGGA,000105.00,2813.3397766,N,11259.4852545,E,1,15,0.8,70.7787,M,-16.713,M,,*43
$GPGSV,1,1,00,,,,,,,,,,,,,,,,*79
$BDGSV,5,1,18,147,36,197,41,150,42,213,41,153,49,320,41,145,23,251,41*63
$BDGSV,5,2,18,143,59,185,41,144,31,112,41,141,44,126,41,142,45,231,41*66
$BDGSV,5,3,18,148,52,342,41,188,70,352,41,159,18,045,41,160,52,026,41*6B
$BDGSV,5,4,18,169,79,184,41,170,24,147,41,175,35,317,41,178,55,006,41*67
$BDGSV,5,5,18,179,26,160,41,180,33,185,41,,,,,,,,*68
$GPGGA,000106.00,2813.3397603,N,11259.4852101,E,1,15,0.8,70.9101,M,-16.713,M,,*40
$GPGSV,1,1,00,,,,,,,,,,,,,,,,*79
$BDGSV,5,1,18,147,36,197,41,150,42,213,41,153,49,320,41,145,23,251,41*63
$BDGSV,5,2,18,143,59,185,41,144,31,112,41,141,44,126,41,142,45,231,41*66
$BDGSV,5,3,18,148,52,342,41,188,70,352,41,159,18,045,41,160,52,026,41*6B
$BDGSV,5,4,18,169,79,184,41,170,24,147,41,175,35,317,41,178,55,006,41*67
$BDGSV,5,5,18,179,26,160,41,180,33,185,41,,,,,,,,*68
$GPGGA,000107.00,2813.3397781,N,11259.4852147,E,1,15,0.8,70.8438,M,-16.713,M,,*46
$GPGSV,1,1,00,,,,,,,,,,,,,,,,*79
$BDGSV,5,1,18,147,36,197,41,150,42,213,41,153,49,320,41,145,23,251,41*63
$BDGSV,5,2,18,143,59,185,41,144,31,112,41,141,44,126,41,142,45,231,41*66
$BDGSV,5,3,18,148,52,342,41,188,70,352,41,159,63,273,41,160,52,026,41*60
$BDGSV,5,4,18,169,79,184,42,170,24,147,41,175,35,317,41,178,55,006,41*64
$BDGSV,5,5,18,179,26,160,41,180,33,185,41,,,,,,,,*68
$GPGGA,000108.00,2813.3397833,N,11259.4852125,E,1,15,0.8,70.8055,M,-16.713,M,,*44
$GPGSV,1,1,00,,,,,,,,,,,,,,,,*79
$BDGSV,5,1,18,147,36,197,41,150,42,213,41,153,49,320,41,145,23,251,41*63
$BDGSV,5,2,18,143,59,185,41,144,31,112,41,141,44,126,41,142,45,231,41*66
$BDGSV,5,3,18,148,52,342,41,188,70,352,41,159,63,273,41,160,52,026,41*60
$BDGSV,5,4,18,169,79,184,41,170,24,147,41,175,35,317,41,178,55,006,41*67
$BDGSV,5,5,18,179,26,160,41,180,33,185,41,,,,,,,,*68
$GPGGA,000109.00,2813.3397910,N,11259.4851997,E,1,15,0.8,70.7642,M,-16.713,M,,*48
$GPGSV,1,1,00,,,,,,,,,,,,,,,,*79
$BDGSV,5,1,18,147,36,197,41,150,42,213,41,153,49,320,41,145,23,251,41*63
$BDGSV,5,2,18,143,59,185,41,144,31,112,41,141,44,126,41,142,45,231,41*66
$BDGSV,5,3,18,148,52,342,41,188,70,352,41,159,63,273,41,160,52,026,41*60
$BDGSV,5,4,18,169,79,184,41,170,24,147,41,175,35,317,41,178,55,006,41*67
$BDGSV,5,5,18,179,26,160,41,180,33,185,41,,,,,,,,*68
$GPGGA,000110.00,2813.3397979,N,11259.4852073,E,1,15,0.8,70.7017,M,-16.713,M,,*49
$GPGSV,1,1,00,,,,,,,,,,,,,,,,*79
$BDGSV,5,1,18,147,36,197,41,150,42,213,41,153,49,320,40,145,23,251,41*62
$BDGSV,5,2,18,143,59,185,41,144,31,112,41,141,44,126,41,142,45,231,41*66
$BDGSV,5,3,18,148,52,342,41,188,70,352,41,159,63,273,41,160,52,026,41*60
$BDGSV,5,4,18,169,79,184,41,170,24,147,41,175,35,317,41,178,55,006,41*67
$BDGSV,5,5,18,179,26,160,41,180,33,185,41,,,,,,,,*68
$GPGGA,000111.00,2813.3397837,N,11259.4851931,E,1,15,0.8,70.7487,M,-16.713,M,,*42
$GPGSV,1,1,00,,,,,,,,,,,,,,,,*79
$BDGSV,5,1,18,147,36,197,42,150,42,213,41,153,49,320,41,145,23,251,41*60
$BDGSV,5,2,18,143,59,185,41,144,31,112,41,141,44,126,41,142,45,231,42*65
$BDGSV,5,3,18,148,52,342,41,188,70,352,41,159,63,273,41,160,52,026,41*60
$BDGSV,5,4,18,169,79,184,41,170,24,147,41,175,35,317,41,178,55,006,42*64
$BDGSV,5,5,18,179,26,160,41,180,33,185,41,,,,,,,,*68
$GPGGA,000112.00,2813.3397840,N,11259.4851923,E,1,15,0.8,70.7484,M,-16.713,M,,*41
$GPGSV,1,1,00,,,,,,,,,,,,,,,,*79
$BDGSV,5,1,18,147,36,197,41,150,42,213,41,153,49,320,41,145,23,251,41*63
$BDGSV,5,2,18,143,59,185,41,144,31,112,41,141,44,126,41,142,45,231,41*66
$BDGSV,5,3,18,148,52,342,41,188,70,352,41,159,63,273,41,160,52,026,41*60
$BDGSV,5,4,18,169,79,184,41,170,24,147,41,175,35,317,41,178,55,006,41*67
$BDGSV,5,5,18,179,26,160,41,180,33,185,41,,,,,,,,*68
$GPGGA,000113.00,2813.3397828,N,11259.4851892,E,1,16,0.8,70.7550,M,-16.713,M,,*4E
$GPGSV,1,1,00,,,,,,,,,,,,,,,,*79
$BDGSV,5,1,19,147,36,197,41,156,20,165,42,150,42,213,41,153,49,320,41*64
$BDGSV,5,2,19,145,23,251,41,143,59,185,41,144,31,112,41,141,44,126,41*66
$BDGSV,5,3,19,142,45,231,42,148,52,342,41,188,70,352,41,159,63,273,41*60
$BDGSV,5,4,19,160,52,026,41,169,79,184,41,170,24,147,41,175,35,317,41*6A
$BDGSV,5,5,19,178,55,006,41,179,26,160,41,180,33,185,42,,,,*67
$GPGGA,000114.00,2813.3397821,N,11259.4851868,E,1,16,0.8,70.7541,M,-16.713,M,,*45
$GPGSV,1,1,00,,,,,,,,,,,,,,,,*79
$BDGSV,5,1,19,147,36,197,41,156,20,165,41,150,42,213,41,153,49,320,41*67
$BDGSV,5,2,19,145,23,251,41,143,59,185,41,144,31,112,41,141,44,126,41*66
$BDGSV,5,3,19,142,45,231,41,148,52,342,41,188,70,352,41,159,63,273,41*63
$BDGSV,5,4,19,160,52,026,41,169,79,184,41,170,24,147,41,175,35,317,41*6A
$BDGSV,5,5,19,178,55,006,41,179,26,160,41,180,33,185,41,,,,*64
$GPGGA,000115.00,2813.3397812,N,11259.4851856,E,1,19,0.8,70.7586,M,-16.713,M,,*4D
$GPGSV,1,1,00,,,,,,,,,,,,,,,,*79
$BDGSV,5,1,19,147,36,197,41,156,20,165,41,150,42,213,41,153,49,320,41*67
$BDGSV,5,2,19,145,23,251,41,143,59,185,41,144,31,112,41,141,44,126,41*66
$BDGSV,5,3,19,142,45,231,41,148,52,342,41,188,70,352,41,159,63,273,41*63
$BDGSV,5,4,19,160,52,026,41,169,79,184,41,170,24,147,41,175,35,317,41*6A
$BDGSV,5,5,19,178,55,006,41,179,26,160,41,180,33,185,41,,,,*64
$GPGGA,000116.00,2813.3397812,N,11259.4851870,E,1,19,0.8,70.7527,M,-16.713,M,,*41
$GPGSV,1,1,00,,,,,,,,,,,,,,,,*79
$BDGSV,5,1,19,147,36,197,41,156,20,165,42,150,42,213,41,153,49,320,41*64
$BDGSV,5,2,19,145,23,251,41,143,59,185,41,144,31,112,41,141,44,126,41*66
$BDGSV,5,3,19,142,45,231,41,148,52,342,41,188,70,352,41,159,63,273,41*63
$BDGSV,5,4,19,160,52,026,41,169,79,184,41,170,24,147,42,175,35,317,41*69
$BDGSV,5,5,19,178,55,006,41,179,26,160,41,180,33,185,41,,,,*64
$GPGGA,000117.00,2813.3397808,N,11259.4851863,E,1,19,0.8,70.7544,M,-16.713,M,,*4C
$GPGSV,1,1,00,,,,,,,,,,,,,,,,*79
$BDGSV,5,1,19,147,36,197,41,156,20,165,41,150,42,213,41,153,49,320,41*67
$BDGSV,5,2,19,145,23,251,41,143,59,185,41,144,31,112,41,141,44,126,41*66
$BDGSV,5,3,19,142,45,231,41,148,52,342,41,188,70,352,41,159,63,273,41*63
$BDGSV,5,4,19,160,52,026,41,169,79,184,41,170,24,147,41,175,35,317,41*6A
$BDGSV,5,5,19,178,55,006,41,179,26,160,41,180,33,185,41,,,,*64
$GPGGA,000118.00,2813.3397799,N,11259.4851854,E,1,19,0.8,70.7571,M,-16.713,M,,*46
$GPGSV,1,1,00,,,,,,,,,,,,,,,,*79
$BDGSV,5,1,19,147,36,197,41,156,20,165,41,150,42,213,41,153,49,320,41*67
$BDGSV,5,2,19,145,23,251,41,143,59,185,41,144,31,112,41,141,44,126,41*66
$BDGSV,5,3,19,142,45,231,41,148,52,342,42,188,70,352,41,159,63,273,41*60
$BDGSV,5,4,19,160,52,026,41,169,79,184,41,170,24,147,41,175,35,317,41*6A
$BDGSV,5,5,19,178,55,006,42,179,26,160,41,180,33,185,41,,,,*67
$GPGGA,000119.00,2813.3397792,N,11259.4851847,E,1,19,0.8,70.7626,M,-16.713,M,,*4F
$GPGSV,1,1,00,,,,,,,,,,,,,,,,*79
$BDGSV,5,1,19,147,36,197,41,156,20,165,41,150,42,213,41,153,49,320,41*67
$BDGSV,5,2,19,145,23,251,41,143,59,185,41,144,31,112,41,141,44,126,41*66
$BDGSV,5,3,19,142,45,231,41,148,52,342,41,188,70,352,41,159,63,273,41*63
$BDGSV,5,4,19,160,52,026,41,169,79,184,41,170,24,147,41,175,35,317,41*6A
$BDGSV,5,5,19,178,55,006,41,179,26,160,41,180,33,185,41,,,,*64
$GPGGA,000120.00,2813.3397791,N,11259.4851831,E,1,19,0.8,70.7638,M,-16.713,M,,*48
$GPGSV,1,1,00,,,,,,,,,,,,,,,,*79
$BDGSV,5,1,19,147,36,197,41,156,20,165,41,150,42,213,41,153,49,320,41*67
$BDGSV,5,2,19,145,23,251,41,143,59,185,41,144,31,112,41,141,44,126,41*66
$BDGSV,5,3,19,142,45,231,41,148,52,342,41,188,70,352,41,159,63,273,41*63
$BDGSV,5,4,19,160,52,026,41,169,79,184,41,170,24,147,41,175,35,317,41*6A
$BDGSV,5,5,19,178,55,006,41,179,26,160,41,180,33,185,41,,,,*64
$GPGGA,000121.00,2813.3397782,N,11259.4851810,E,1,19,0.8,70.7679,M,-16.713,M,,*4D
$GPGSV,1,1,00,,,,,,,,,,,,,,,,*79
$BDGSV,5,1,19,147,36,197,41,156,20,165,41,150,42,213,41,153,49,320,41*67
$BDGSV,5,2,19,145,23,251,41,143,59,185,41,144,31,112,41,141,44,126,41*66
$BDGSV,5,3,19,142,45,231,41,148,52,342,41,188,70,352,41,159,63,273,41*63
$BDGSV,5,4,19,160,52,026,41,169,79,184,41,170,24,147,41,175,35,317,41*6A
$BDGSV,5,5,19,178,55,006,41,179,26,160,41,180,33,185,41,,,,*64
$GPGGA,000122.00,2813.3397771,N,11259.4851787,E,1,19,0.8,70.7715,M,-16.713,M,,*48
$GPGSV,1,1,00,,,,,,,,,,,,,,,,*79
$BDGSV,5,1,19,147,36,197,41,156,20,165,41,150,42,213,41,153,49,320,41*67
$BDGSV,5,2,19,145,23,251,41,143,59,185,42,144,31,112,41,141,44,126,41*65
$BDGSV,5,3,19,142,45,231,41,148,52,342,41,188,70,352,41,159,63,273,41*63
$BDGSV,5,4,19,160,52,026,41,169,79,184,41,170,24,147,41,175,35,317,41*6A
$BDGSV,5,5,19,178,55,006,41,179,26,160,41,180,33,185,41,,,,*64
$GPGGA,000123.00,2813.3397766,N,11259.4851774,E,1,19,0.8,70.7765,M,-16.713,M,,*44
$GPGSV,1,1,00,,,,,,,,,,,,,,,,*79
$BDGSV,5,1,19,147,36,197,41,156,20,165,41,150,42,213,41,153,49,320,41*67
$BDGSV,5,2,19,145,23,251,41,143,59,185,41,144,31,112,41,141,44,126,41*66
$BDGSV,5,3,19,142,45,231,41,148,52,342,41,188,70,352,41,159,63,273,41*63
$BDGSV,5,4,19,160,52,026,41,169,79,184,41,170,24,147,41,175,35,317,41*6A
$BDGSV,5,5,19,178,55,006,41,179,26,160,41,180,33,185,41,,,,*64
$GPGGA,000124.00,2813.3397775,N,11259.4851786,E,1,19,0.8,70.7716,M,-16.713,M,,*48
$GPGSV,1,1,00,,,,,,,,,,,,,,,,*79
$BDGSV,5,1,19,147,36,197,41,156,20,165,41,150,42,213,41,153,49,320,41*67
$BDGSV,5,2,19,145,23,251,42,143,59,185,41,144,31,112,41,141,44,126,41*65
$BDGSV,5,3,19,142,45,231,41,148,52,342,42,188,70,352,41,159,63,273,41*60
$BDGSV,5,4,19,160,52,026,41,169,79,184,41,170,24,147,41,175,35,317,41*6A
$BDGSV,5,5,19,178,55,006,41,179,26,160,41,180,33,185,41,,,,*64
$GPGGA,000125.00,2813.3397774,N,11259.4851788,E,1,19,0.8,70.7669,M,-16.713,M,,*4F
$GPGSV,1,1,00,,,,,,,,,,,,,,,,*79
$BDGSV,5,1,19,147,36,197,41,156,20,165,41,150,42,213,41,153,49,320,41*67
$BDGSV,5,2,19,145,23,251,41,143,59,185,41,144,31,112,41,141,44,126,41*66
$BDGSV,5,3,19,142,45,231,41,148,52,342,41,188,70,352,41,159,63,273,41*63
$BDGSV,5,4,19,160,52,026,41,169,79,184,41,170,24,147,41,175,35,317,41*6A
$BDGSV,5,5,19,178,55,006,41,179,26,160,41,180,33,185,41,,,,*64
$GPGGA,000126.00,2813.3397773,N,11259.4851786,E,1,19,0.8,70.7697,M,-16.713,M,,*44
$GPGSV,1,1,00,,,,,,,,,,,,,,,,*79
$BDGSV,5,1,19,147,36,197,41,156,20,165,41,150,42,213,41,153,49,320,41*67
$BDGSV,5,2,19,145,23,251,41,143,59,185,41,144,31,112,41,141,44,126,41*66
$BDGSV,5,3,19,142,45,231,41,148,52,342,41,188,70,352,41,159,63,273,41*63
$BDGSV,5,4,19,160,52,026,41,169,79,184,41,170,24,147,41,175,35,317,41*6A
$BDGSV,5,5,19,178,55,006,41,179,26,160,41,180,33,185,41,,,,*64
$GPGGA,000127.00,2813.3397775,N,11259.4851800,E,1,19,0.8,70.7636,M,-16.713,M,,*49
$GPGSV,1,1,00,,,,,,,,,,,,,,,,*79
$BDGSV,5,1,19,147,36,197,41,156,20,165,41,150,42,213,41,153,49,320,41*67
$BDGSV,5,2,19,145,23,251,41,143,59,185,41,144,31,112,41,141,44,126,41*66
$BDGSV,5,3,19,142,45,231,41,148,52,342,41,188,70,352,41,159,63,273,41*63
$BDGSV,5,4,19,160,52,026,41,169,79,184,41,170,24,147,41,175,35,317,41*6A
$BDGSV,5,5,19,178,55,006,41,179,26,160,41,180,33,185,41,,,,*64
$GPGGA,000128.00,2813.3397769,N,11259.4851810,E,1,19,0.8,70.7535,M,-16.713,M,,*4A
$GPGSV,1,1,00,,,,,,,,,,,,,,,,*79
$BDGSV,5,1,19,147,36,197,41,156,20,165,42,150,42,213,41,153,49,320,42*67
$BDGSV,5,2,19,145,23,251,41,143,59,185,41,144,31,112,41,141,44,126,41*66
$BDGSV,5,3,19,142,45,231,42,148,52,342,41,188,70,352,41,159,63,273,41*60
$BDGSV,5,4,19,160,52,026,41,169,79,184,41,170,24,147,41,175,35,317,41*6A
$BDGSV,5,5,19,178,55,006,41,179,26,160,41,180,33,185,41,,,,*64
$GPGGA,000129.00,2813.3397772,N,11259.4851819,E,1,19,0.8,70.7506,M,-16.713,M,,*48
$GPGSV,1,1,00,,,,,,,,,,,,,,,,*79
$BDGSV,5,1,19,147,36,197,41,156,20,165,41,150,42,213,41,153,49,320,41*67
$BDGSV,5,2,19,145,23,251,41,143,59,185,41,144,31,112,41,141,44,126,41*66
$BDGSV,5,3,19,142,45,231,41,148,52,342,41,188,70,352,41,159,63,273,41*63
$BDGSV,5,4,19,160,52,026,41,169,79,184,41,170,24,147,41,175,35,317,41*6A
$BDGSV,5,5,19,178,55,006,41,179,26,160,41,180,33,185,41,,,,*64
$GPGGA,000130.00,2813.3397765,N,11259.4851809,E,1,19,0.8,70.7552,M,-16.713,M,,*46
$GPGSV,1,1,00,,,,,,,,,,,,,,,,*79
$BDGSV,5,1,19,147,36,197,41,156,20,165,41,150,42,213,41,153,49,320,41*67
$BDGSV,5,2,19,145,23,251,41,143,59,185,41,144,31,112,41,141,44,126,42*65
$BDGSV,5,3,19,142,45,231,41,148,52,342,41,188,70,352,41,159,63,273,41*63
$BDGSV,5,4,19,160,52,026,42,169,79,184,41,170,24,147,41,175,35,317,41*69
$BDGSV,5,5,19,178,55,006,41,179,26,160,41,180,33,185,42,,,,*67
$GPGGA,000131.00,2813.3397761,N,11259.4851806,E,1,19,0.8,70.7514,M,-16.713,M,,*4E
$GPGSV,1,1,00,,,,,,,,,,,,,,,,*79
$BDGSV,5,1,19,147,36,197,41,156,20,165,41,150,42,213,41,153,49,320,41*67
$BDGSV,5,2,19,145,23,251,41,143,59,185,41,144,31,112,41,141,44,126,41*66
$BDGSV,5,3,19,142,45,231,41,148,52,342,42,188,70,352,41,159,63,273,41*60
$BDGSV,5,4,19,160,52,026,41,169,79,184,41,170,24,147,41,175,35,317,41*6A
$BDGSV,5,5,19,178,55,006,41,179,26,160,41,180,33,185,41,,,,*64
$GPGGA,000132.00,2813.3397760,N,11259.4851822,E,1,19,0.8,70.7439,M,-16.713,M,,*44
$GPGSV,1,1,00,,,,,,,,,,,,,,,,*79
$BDGSV,5,1,19,147,36,197,41,156,20,165,41,150,42,213,41,153,49,320,41*67
$BDGSV,5,2,19,145,23,251,41,143,59,185,41,144,31,112,41,141,44,126,41*66
$BDGSV,5,3,19,142,45,231,41,148,52,342,41,188,70,352,41,159,63,274,42*67
$BDGSV,5,4,19,160,52,026,41,169,79,184,41,170,24,147,41,175,35,317,41*6A
$BDGSV,5,5,19,178,55,006,41,179,26,160,41,180,33,185,41,,,,*64
$GPGGA,000133.00,2813.3397762,N,11259.4851814,E,1,19,0.8,70.7400,M,-16.713,M,,*48
$GPGSV,1,1,00,,,,,,,,,,,,,,,,*79
$BDGSV,5,1,19,147,36,197,41,156,20,165,41,150,42,213,41,153,49,320,41*67
$BDGSV,5,2,19,145,23,251,41,143,59,185,41,144,31,112,41,141,44,126,41*66
$BDGSV,5,3,19,142,45,231,41,148,51,342,41,188,70,352,41,159,63,274,41*67
$BDGSV,5,4,19,160,52,026,41,169,79,184,41,170,24,147,41,175,35,317,41*6A
$BDGSV,5,5,19,178,55,006,41,179,26,160,41,180,33,185,41,,,,*64
$GPGGA,000134.00,2813.3397749,N,11259.4851797,E,1,19,0.8,70.7496,M,-16.713,M,,*4D
$GPGSV,1,1,00,,,,,,,,,,,,,,,,*79
$BDGSV,5,1,19,147,36,197,41,156,20,165,41,150,42,213,41,153,49,320,41*67
$BDGSV,5,2,19,145,23,251,41,143,59,185,41,144,31,112,41,141,44,126,41*66
$BDGSV,5,3,19,142,45,231,41,148,51,342,41,188,70,352,41,159,63,274,42*64
$BDGSV,5,4,19,160,52,026,41,169,79,184,41,170,24,147,41,175,35,317,41*6A
$BDGSV,5,5,19,178,55,006,41,179,26,160,41,180,33,185,41,,,,*64
$GPGGA,000135.00,2813.3397746,N,11259.4851790,E,1,19,0.8,70.7500,M,-16.713,M,,*4A
$GPGSV,1,1,00,,,,,,,,,,,,,,,,*79
$BDGSV,5,1,19,147,36,197,41,156,20,165,41,150,42,213,41,153,49,320,41*67
$BDGSV,5,2,19,145,23,251,41,143,59,185,41,144,31,112,41,141,44,126,41*66
$BDGSV,5,3,19,142,45,231,41,148,51,342,41,188,70,352,41,159,63,274,41*67
$BDGSV,5,4,19,160,52,026,41,169,79,184,41,170,24,147,41,175,35,317,41*6A
$BDGSV,5,5,19,178,55,006,41,179,26,160,41,180,33,185,41,,,,*64
$GPGGA,000136.00,2813.3397754,N,11259.4851795,E,1,19,0.8,70.7463,M,-16.713,M,,*4B
$GPGSV,1,1,00,,,,,,,,,,,,,,,,*79
$BDGSV,5,1,19,147,36,197,41,156,20,165,41,150,42,213,41,153,49,320,41*67
$BDGSV,5,2,19,145,23,251,41,143,59,185,41,144,31,112,41,141,44,126,41*66
$BDGSV,5,3,19,142,45,231,41,148,51,342,41,188,70,352,41,159,63,274,41*67
$BDGSV,5,4,19,160,52,026,41,169,79,184,41,170,24,147,41,175,35,317,41*6A
$BDGSV,5,5,19,178,55,006,41,179,26,160,41,180,33,185,41,,,,*64
$GPGGA,000137.00,2813.3397758,N,11259.4851783,E,1,19,0.8,70.7419,M,-16.713,M,,*4C
$GPGSV,1,1,00,,,,,,,,,,,,,,,,*79
$BDGSV,5,1,19,147,36,197,41,156,20,165,41,150,42,213,41,153,49,320,41*67
$BDGSV,5,2,19,145,23,251,41,143,59,185,41,144,31,112,41,141,44,126,41*66
$BDGSV,5,3,19,142,45,231,41,148,51,342,41,188,70,352,41,159,63,274,41*67
$BDGSV,5,4,19,160,52,026,41,169,79,184,41,170,24,147,41,175,35,317,41*6A
$BDGSV,5,5,19,178,55,006,41,179,26,160,41,180,33,185,41,,,,*64
$GPGGA,000138.00,2813.3397749,N,11259.4851766,E,1,19,0.8,70.7476,M,-16.713,M,,*41
$GPGSV,1,1,00,,,,,,,,,,,,,,,,*79
$BDGSV,5,1,19,147,36,197,41,156,20,165,41,150,42,213,42,153,49,320,42*67
$BDGSV,5,2,19,145,23,251,42,143,59,185,41,144,31,112,41,141,44,126,41*65
$BDGSV,5,3,19,142,45,231,41,148,51,342,41,188,70,352,42,159,63,274,41*64
$BDGSV,5,4,19,160,52,026,41,169,79,184,41,170,24,147,41,175,35,317,42*69
$BDGSV,5,5,19,178,55,006,41,179,26,160,41,180,33,185,41,,,,*64
$GPGGA,000139.00,2813.3397750,N,11259.4851757,E,1,19,0.8,70.7534,M,-16.713,M,,*4D
$GPGSV,1,1,00,,,,,,,,,,,,,,,,*79
$BDGSV,5,1,19,147,36,197,41,156,20,165,41,150,42,213,41,153,49,320,41*67
$BDGSV,5,2,19,145,23,251,41,143,59,185,42,144,31,112,41,141,44,126,41*65
$BDGSV,5,3,19,142,45,231,41,148,51,342,41,188,70,352,41,159,63,274,41*67
$BDGSV,5,4,19,160,52,026,41,169,79,184,41,170,24,147,41,175,35,317,41*6A
$BDGSV,5,5,19,178,55,006,41,179,26,160,41,180,33,185,41,,,,*64
$GPGGA,000140.00,2813.3397749,N,11259.4851765,E,1,19,0.8,70.7534,M,-16.713,M,,*4A
$GPGSV,1,1,00,,,,,,,,,,,,,,,,*79
$BDGSV,5,1,19,147,36,197,41,156,20,165,42,150,42,213,41,153,49,320,41*64
$BDGSV,5,2,19,145,23,251,41,143,59,185,41,144,31,112,41,141,44,126,41*66
$BDGSV,5,3,19,142,45,231,41,148,51,342,42,188,70,352,41,159,63,274,41*64
$BDGSV,5,4,19,160,52,026,42,169,79,184,41,170,24,147,41,175,35,317,41*69
$BDGSV,5,5,19,178,55,006,41,179,26,160,42,180,33,185,41,,,,*67
$GPGGA,000141.00,2813.3397744,N,11259.4851760,E,1,19,0.8,70.7498,M,-16.713,M,,*44
$GPGSV,1,1,00,,,,,,,,,,,,,,,,*79
$BDGSV,5,1,19,147,36,197,41,156,20,165,41,150,42,213,41,153,49,320,41*67
$BDGSV,5,2,19,145,23,251,41,143,59,185,41,144,31,112,41,141,44,126,41*66
$BDGSV,5,3,19,142,45,231,41,148,51,342,41,188,70,352,41,159,63,274,41*67
$BDGSV,5,4,19,160,52,026,41,169,79,184,41,170,24,147,41,175,35,317,41*6A
$BDGSV,5,5,19,178,55,006,41,179,26,160,41,180,33,185,41,,,,*64
$GPGGA,000142.00,2813.3397753,N,11259.4851756,E,1,19,0.8,70.7443,M,-16.713,M,,*42
$GPGSV,1,1,00,,,,,,,,,,,,,,,,*79
$BDGSV,5,1,19,147,36,197,41,156,20,165,41,150,42,213,41,153,49,320,41*67
$BDGSV,5,2,19,145,23,251,41,143,59,185,41,144,31,112,41,141,44,126,41*66
$BDGSV,5,3,19,142,45,231,41,148,51,342,41,188,70,352,41,159,63,274,41*67
$BDGSV,5,4,19,160,52,026,41,169,79,184,42,170,24,147,41,175,35,317,42*6A
$BDGSV,5,5,19,178,55,006,41,179,26,160,41,180,33,185,41,,,,*64
$GPGGA,000143.00,2813.3397747,N,11259.4851766,E,1,19,0.8,70.7380,M,-16.713,M,,*4D
$GPGSV,1,1,00,,,,,,,,,,,,,,,,*79
$BDGSV,5,1,19,147,36,197,41,156,20,165,42,150,42,213,41,153,49,320,41*64
$BDGSV,5,2,19,145,23,251,41,143,59,185,41,144,31,112,41,141,44,126,41*66
$BDGSV,5,3,19,142,45,231,41,148,51,342,46,188,70,352,41,159,63,274,41*60
$BDGSV,5,4,19,160,52,026,41,169,79,184,41,170,24,147,41,175,35,317,41*6A
$BDGSV,5,5,19,178,55,006,41,179,26,160,41,180,33,185,41,,,,*64
$GPGGA,000144.00,2813.3397740,N,11259.4851771,E,1,19,0.8,70.7294,M,-16.713,M,,*4F
$GPGSV,1,1,00,,,,,,,,,,,,,,,,*79
$BDGSV,5,1,19,147,36,197,42,156,20,165,41,150,42,213,41,153,49,320,42*67
$BDGSV,5,2,19,145,23,251,41,143,59,185,41,144,31,112,41,141,44,126,41*66
$BDGSV,5,3,19,142,45,231,41,148,51,342,49,188,70,352,42,159,63,274,41*6C
$BDGSV,5,4,19,160,52,026,41,169,79,184,41,170,24,147,42,175,35,317,41*69
$BDGSV,5,5,19,178,55,006,41,179,26,160,41,180,33,185,41,,,,*64
$GPGGA,000145.00,2813.3397748,N,11259.4851785,E,1,18,0.8,70.7227,M,-16.713,M,,*44
$GPGSV,1,1,00,,,,,,,,,,,,,,,,*79
$BDGSV,5,1,18,147,36,197,41,156,20,165,41,150,42,213,41,153,49,320,41*66
$BDGSV,5,2,18,145,23,251,41,143,59,185,41,144,31,112,41,141,44,126,41*67
$BDGSV,5,3,18,142,45,231,41,188,70,353,41,159,63,274,42,160,52,026,41*6C
$BDGSV,5,4,18,169,79,184,41,170,24,147,41,175,35,317,41,178,55,006,41*67
$BDGSV,5,5,18,179,26,160,41,180,33,185,41,,,,,,,,*68
$GPGGA,000146.00,2813.3397750,N,11259.4851774,E,1,18,0.8,70.7280,M,-16.713,M,,*4D
$GPGSV,1,1,00,,,,,,,,,,,,,,,,*79
$BDGSV,5,1,19,147,36,197,41,156,20,165,41,150,42,213,41,153,49,320,41*67
$BDGSV,5,2,19,145,23,251,41,143,59,185,42,144,31,112,41,141,44,126,41*65
$BDGSV,5,3,19,142,45,231,41,148,51,342,44,188,70,353,41,159,63,274,41*63
$BDGSV,5,4,19,160,52,026,41,169,79,184,41,170,24,147,41,175,35,317,41*6A
$BDGSV,5,5,19,178,55,006,41,179,26,160,41,180,33,185,42,,,,*67
$GPGGA,000147.00,2813.3397752,N,11259.4851766,E,1,18,0.8,70.7310,M,-16.713,M,,*45
$GPGSV,1,1,00,,,,,,,,,,,,,,,,*79
$BDGSV,5,1,18,147,36,197,41,156,20,165,41,150,42,213,41,153,49,320,41*66
$BDGSV,5,2,18,145,23,251,41,143,59,185,41,144,31,112,42,141,44,126,41*64
$BDGSV,5,3,18,142,45,231,41,188,70,353,41,159,63,274,41,160,52,026,41*6F
$BDGSV,5,4,18,169,79,184,41,170,24,147,41,175,35,317,41,178,55,006,41*67
$BDGSV,5,5,18,179,26,160,41,180,33,185,41,,,,,,,,*68
$GPGGA,000148.00,2813.3397754,N,11259.4851772,E,1,18,0.8,70.7258,M,-16.713,M,,*44
$GPGSV,1,1,00,,,,,,,,,,,,,,,,*79
$BDGSV,5,1,18,147,36,197,41,156,20,165,41,150,42,213,41,153,49,320,41*66
$BDGSV,5,2,18,145,23,251,41,143,59,185,41,144,31,112,41,141,44,126,41*67
$BDGSV,5,3,18,142,45,231,41,188,70,353,41,159,63,274,41,160,52,026,42*6C
$BDGSV,5,4,18,169,79,184,41,170,24,147,41,175,35,317,41,178,55,006,41*67
$BDGSV,5,5,18,179,26,160,41,180,33,185,41,,,,,,,,*68
$GPGGA,000149.00,2813.3397761,N,11259.4851767,E,1,18,0.8,70.7275,M,-16.713,M,,*48
$GPGSV,1,1,00,,,,,,,,,,,,,,,,*79
$BDGSV,5,1,19,147,36,197,41,156,20,165,41,150,42,213,41,153,49,320,41*67
$BDGSV,5,2,19,145,23,251,41,143,59,185,41,144,31,112,41,141,44,126,41*66
$BDGSV,5,3,19,142,45,231,41,148,51,342,43,188,70,353,41,159,63,274,41*64
$BDGSV,5,4,19,160,52,026,41,169,79,184,41,170,24,147,41,175,35,317,41*6A
$BDGSV,5,5,19,178,55,006,41,179,26,160,41,180,33,185,41,,,,*64
$GPGGA,000150.00,2813.3397769,N,11259.4851761,E,1,18,0.8,70.7287,M,-16.713,M,,*43
$GPGSV,1,1,00,,,,,,,,,,,,,,,,*79
$BDGSV,5,1,18,147,36,197,41,156,20,165,41,150,42,213,41,153,49,320,41*66
$BDGSV,5,2,18,145,23,251,41,143,59,185,41,144,31,112,41,141,44,126,41*67
$BDGSV,5,3,18,142,45,231,41,188,70,353,41,159,63,274,41,160,52,026,41*6F
$BDGSV,5,4,18,169,79,184,41,170,24,147,41,175,35,317,41,178,55,006,41*67
$BDGSV,5,5,18,179,26,160,41,180,33,185,41,,,,,,,,*68
$GPGGA,000151.00,2813.3397772,N,11259.4851769,E,1,18,0.8,70.7312,M,-16.713,M,,*4D
$GPGSV,1,1,00,,,,,,,,,,,,,,,,*79
$BDGSV,5,1,18,147,36,197,41,156,20,165,41,150,42,213,41,153,49,320,41*66
$BDGSV,5,2,18,145,23,251,41,143,59,185,42,144,31,112,41,141,44,126,42*67
$BDGSV,5,3,18,142,45,231,41,188,70,353,42,159,63,274,41,160,52,026,41*6C
$BDGSV,5,4,18,169,79,184,41,170,24,147,41,175,35,317,42,178,55,006,41*64
$BDGSV,5,5,18,179,26,160,41,180,33,185,41,,,,,,,,*68
$GPGGA,000152.00,2813.3397764,N,11259.4851765,E,1,18,0.8,70.7306,M,-16.713,M,,*40
$GPGSV,1,1,00,,,,,,,,,,,,,,,,*79
$BDGSV,5,1,19,147,36,197,41,156,20,165,41,150,42,213,41,153,49,320,41*67
$BDGSV,5,2,19,145,23,251,41,143,59,185,41,144,31,112,41,141,44,126,41*66
$BDGSV,5,3,19,142,45,231,41,148,51,342,44,188,70,353,41,159,63,274,41*63
$BDGSV,5,4,19,160,52,026,41,169,79,184,41,170,24,147,41,175,35,317,41*6A
$BDGSV,5,5,19,178,55,006,41,179,26,160,41,180,33,185,41,,,,*64
$GPGGA,000153.00,2813.3397761,N,11259.4851761,E,1,18,0.8,70.7366,M,-16.713,M,,*46
$GPGSV,1,1,00,,,,,,,,,,,,,,,,*79
$BDGSV,5,1,19,147,36,197,42,156,20,165,42,150,42,213,41,153,49,320,41*67
$BDGSV,5,2,19,145,23,251,41,143,59,185,41,144,31,112,41,141,44,126,41*66
$BDGSV,5,3,19,142,45,231,41,148,51,342,44,188,70,353,41,159,63,274,41*63
$BDGSV,5,4,19,160,52,026,41,169,79,184,41,170,24,147,41,175,35,317,41*6A
$BDGSV,5,5,19,178,55,006,41,179,26,160,41,180,33,185,41,,,,*64
$GPGGA,000154.00,2813.3397764,N,11259.4851756,E,1,18,0.8,70.7304,M,-16.713,M,,*44
$GPGSV,1,1,00,,,,,,,,,,,,,,,,*79
$BDGSV,5,1,19,147,36,197,42,156,20,165,41,150,42,213,41,153,49,320,41*64
$BDGSV,5,2,19,145,23,251,41,143,59,185,41,144,31,112,42,141,44,126,41*65
$BDGSV,5,3,19,142,45,231,41,148,51,342,44,188,70,353,41,159,63,274,41*63
$BDGSV,5,4,19,160,52,026,41,169,79,184,41,170,24,147,42,175,35,317,41*69
$BDGSV,5,5,19,178,55,006,42,179,26,160,41,180,33,185,41,,,,*67
$GPGGA,000155.00,2813.3397763,N,11259.4851784,E,1,18,0.8,70.7215,M,-16.713,M,,*4C
$GPGSV,1,1,00,,,,,,,,,,,,,,,,*79
$BDGSV,5,1,19,147,36,197,41,156,20,165,41,150,42,213,41,153,49,320,41*67
$BDGSV,5,2,19,145,23,251,41,143,59,185,41,144,31,112,41,141,44,126,41*66
$BDGSV,5,3,19,142,45,231,41,148,51,342,44,188,70,353,41,159,63,274,41*63
$BDGSV,5,4,19,160,52,026,41,169,79,184,41,170,24,147,41,175,35,317,41*6A
$BDGSV,5,5,19,178,55,006,42,179,26,160,41,180,33,185,41,,,,*67
$GPGGA,000156.00,2813.3397769,N,11259.4851779,E,1,18,0.8,70.7113,M,-16.713,M,,*42
$GPGSV,1,1,00,,,,,,,,,,,,,,,,*79
$BDGSV,5,1,19,147,36,197,41,156,20,165,41,150,42,213,41,153,49,320,41*67
$BDGSV,5,2,19,145,23,251,41,143,59,185,41,144,31,112,41,141,44,126,41*66
$BDGSV,5,3,19,142,45,231,41,148,51,342,44,188,70,353,41,159,63,274,41*63
$BDGSV,5,4,19,160,52,026,41,169,79,184,41,170,24,147,41,175,35,317,41*6A
$BDGSV,5,5,19,178,55,006,41,179,26,160,41,180,33,185,41,,,,*64
$GPGGA,000157.00,2813.3397772,N,11259.4851786,E,1,18,0.8,70.7035,M,-16.713,M,,*4C
$GPGSV,1,1,00,,,,,,,,,,,,,,,,*79
$BDGSV,5,1,19,147,36,197,41,156,20,165,41,150,42,213,41,153,49,320,41*67
$BDGSV,5,2,19,145,23,251,41,143,59,185,41,144,31,112,41,141,44,126,41*66
$BDGSV,5,3,19,142,45,231,41,148,51,342,44,188,70,353,41,159,63,274,41*63
$BDGSV,5,4,19,160,52,026,41,169,79,184,41,170,24,147,41,175,35,317,41*6A
$BDGSV,5,5,19,178,55,006,41,179,26,160,41,180,33,185,41,,,,*64
$GPGGA,000158.00,2813.3397765,N,11259.4851799,E,1,18,0.8,70.6935,M,-16.713,M,,*43
$GPGSV,1,1,00,,,,,,,,,,,,,,,,*79
$BDGSV,5,1,19,147,36,197,42,156,20,165,41,150,42,213,41,153,49,320,41*64
$BDGSV,5,2,19,145,23,251,41,143,59,185,41,144,31,112,41,141,44,126,41*66
$BDGSV,5,3,19,142,45,231,41,148,51,342,44,188,70,353,41,159,63,274,41*63
$BDGSV,5,4,19,160,52,026,41,169,79,184,41,170,24,147,41,175,35,317,41*6A
$BDGSV,5,5,19,178,55,006,41,179,26,160,41,180,33,185,42,,,,*67
$GPGGA,000159.00,2813.3397764,N,11259.4851818,E,1,18,0.8,70.6845,M,-16.713,M,,*43
$GPGSV,1,1,00,,,,,,,,,,,,,,,,*79
$BDGSV,5,1,19,147,36,197,41,156,20,165,41,150,42,213,41,153,49,320,41*67
$BDGSV,5,2,19,145,23,251,41,143,59,185,41,144,31,112,41,141,44,126,40*67
$BDGSV,5,3,19,142,45,231,41,148,51,342,44,188,70,353,41,159,63,274,41*63
$BDGSV,5,4,19,160,52,026,41,169,79,184,41,170,24,147,41,175,35,317,41*6A
$BDGSV,5,5,19,178,55,006,41,179,26,160,41,180,33,185,41,,,,*64
$GPGGA,000200.00,2813.3397763,N,11259.4851816,E,1,18,0.8,70.6820,M,-16.713,M,,*46
$GPGSV,1,1,00,,,,,,,,,,,,,,,,*79
$BDGSV,5,1,19,147,36,197,41,156,20,165,41,150,42,213,41,153,49,320,41*67
$BDGSV,5,2,19,145,23,251,41,143,59,185,42,144,31,112,41,141,44,126,42*66
$BDGSV,5,3,19,142,45,231,41,148,51,342,44,188,70,353,41,159,63,274,41*63
$BDGSV,5,4,19,160,52,026,41,169,79,184,41,170,24,147,41,175,35,317,41*6A
$BDGSV,5,5,19,178,55,006,41,179,26,160,41,180,33,185,41,,,,*64
$GPGGA,000201.00,2813.3397763,N,11259.4851797,E,1,18,0.8,70.6790,M,-16.713,M,,*45
$GPGSV,1,1,00,,,,,,,,,,,,,,,,*79
$BDGSV,5,1,19,147,36,197,41,156,20,165,41,150,42,213,41,153,49,320,41*67
$BDGSV,5,2,19,145,23,251,41,143,59,185,41,144,31,112,41,141,44,126,48*6F
$BDGSV,5,3,19,142,45,231,41,148,51,342,44,188,70,353,41,159,63,274,41*63
$BDGSV,5,4,19,160,52,026,41,169,79,184,41,170,24,147,41,175,35,317,41*6A
$BDGSV,5,5,19,178,55,006,41,179,26,160,41,180,33,185,41,,,,*64
$GPGGA,000202.00,2813.3397761,N,11259.4851798,E,1,17,0.8,70.6778,M,-16.713,M,,*42
$GPGSV,1,1,00,,,,,,,,,,,,,,,,*79
$BDGSV,5,1,18,147,36,197,41,156,20,165,41,150,42,213,41,153,49,320,41*66
$BDGSV,5,2,18,145,23,251,41,143,59,185,41,144,31,112,41,142,45,231,41*60
$BDGSV,5,3,18,148,51,342,44,188,70,353,41,159,63,274,41,160,52,026,41*60
$BDGSV,5,4,18,169,79,184,41,170,24,147,41,175,35,317,41,178,55,006,41*67
$BDGSV,5,5,18,179,26,160,41,180,33,185,41,,,,,,,,*68
$GPGGA,000203.00,2813.3397759,N,11259.4851795,E,1,17,0.8,70.6815,M,-16.713,M,,*41
$GPGSV,1,1,00,,,,,,,,,,,,,,,,*79
$BDGSV,5,1,19,147,36,197,41,156,20,165,41,150,42,213,41,153,49,320,41*67
$BDGSV,5,2,19,145,23,251,41,143,59,185,41,144,31,112,41,141,44,126,36*66
$BDGSV,5,3,19,142,45,231,41,148,51,342,44,188,70,353,41,159,63,274,41*63
$BDGSV,5,4,19,160,52,026,41,169,79,184,41,170,24,147,41,175,35,317,41*6A
$BDGSV,5,5,19,178,55,006,41,179,26,160,41,180,33,185,41,,,,*64
$GPGGA,000204.00,2813.3397761,N,11259.4851793,E,1,17,0.8,70.6847,M,-16.713,M,,*4C
$GPGSV,1,1,00,,,,,,,,,,,,,,,,*79
$BDGSV,5,1,19,147,36,197,41,156,20,165,41,150,42,213,41,153,49,320,41*67
$BDGSV,5,2,19,145,23,251,41,143,59,185,42,144,31,112,41,141,44,126,35*66
$BDGSV,5,3,19,142,45,231,41,148,51,342,44,188,70,353,41,159,63,274,41*63
$BDGSV,5,4,19,160,52,026,41,169,79,184,41,170,24,147,41,175,35,317,41*6A
$BDGSV,5,5,19,178,55,006,41,179,26,160,41,180,33,185,41,,,,*64
$GPGGA,000205.00,2813.3397765,N,11259.4851792,E,1,17,0.8,70.6850,M,-16.713,M,,*4E
$GPGSV,1,1,00,,,,,,,,,,,,,,,,*79
$BDGSV,5,1,19,147,36,197,40,156,20,165,41,150,42,213,41,153,49,320,41*66
$BDGSV,5,2,19,145,23,251,41,143,59,185,41,144,31,112,41,141,44,126,36*66
$BDGSV,5,3,19,142,45,231,41,148,51,342,44,188,70,353,41,159,63,274,41*63
$BDGSV,5,4,19,160,52,026,41,169,79,184,41,170,24,147,41,175,35,317,41*6A
$BDGSV,5,5,19,178,55,006,41,179,26,160,41,180,33,185,41,,,,*64
$GPGGA,000206.00,2813.3397768,N,11259.4851792,E,1,17,0.8,70.6869,M,-16.713,M,,*4A
$GPGSV,1,1,00,,,,,,,,,,,,,,,,*79
$BDGSV,5,1,19,147,36,197,41,156,20,165,41,150,42,213,41,153,49,320,41*67
$BDGSV,5,2,19,145,23,251,41,143,59,185,41,144,31,112,41,141,44,126,36*66
$BDGSV,5,3,19,142,45,231,41,148,51,342,44,188,70,353,41,159,63,274,41*63
$BDGSV,5,4,19,160,52,026,41,169,79,184,41,170,24,147,41,175,35,317,41*6A
$BDGSV,5,5,19,178,55,006,41,179,26,160,41,180,32,185,41,,,,*65
$GPGGA,000207.00,2813.3397779,N,11259.4851810,E,1,17,0.8,70.6805,M,-16.713,M,,*44
$GPGSV,1,1,00,,,,,,,,,,,,,,,,*79
$BDGSV,5,1,19,147,36,197,41,156,20,165,41,150,42,213,41,153,49,320,41*67
$BDGSV,5,2,19,145,23,251,41,143,59,185,41,144,31,112,41,141,44,126,35*65
$BDGSV,5,3,19,142,45,231,41,148,51,342,44,188,70,353,41,159,63,274,41*63
$BDGSV,5,4,19,160,52,026,41,169,79,184,41,170,24,147,41,175,35,317,41*6A
$BDGSV,5,5,19,178,55,006,41,179,26,160,41,180,32,185,41,,,,*65
$GPGGA,000208.00,2813.3397781,N,11259.4851841,E,1,17,0.8,70.6739,M,-16.713,M,,*48
$GPGSV,1,1,00,,,,,,,,,,,,,,,,*79
$BDGSV,5,1,19,147,36,197,41,156,20,165,41,150,42,213,41,153,49,320,41*67
$BDGSV,5,2,19,145,23,251,41,143,59,185,41,144,31,112,41,141,44,126,35*65
$BDGSV,5,3,19,142,45,231,41,148,51,342,44,188,70,353,41,159,63,274,41*63
$BDGSV,5,4,19,160,52,026,41,169,79,184,41,170,24,147,41,175,35,317,41*6A
$BDGSV,5,5,19,178,55,006,41,179,26,160,41,180,32,185,41,,,,*65
$GPGGA,000209.00,2813.3397792,N,11259.4851847,E,1,17,0.8,70.6710,M,-16.713,M,,*46
$GPGSV,1,1,00,,,,,,,,,,,,,,,,*79
$BDGSV,5,1,19,147,36,197,41,156,20,165,41,150,42,213,41,153,49,320,41*67
$BDGSV,5,2,19,145,23,251,41,143,59,185,41,144,31,112,41,141,44,126,35*65
$BDGSV,5,3,19,142,45,231,41,148,51,342,44,188,70,353,41,159,63,274,41*63
$BDGSV,5,4,19,160,52,026,41,169,79,184,41,170,24,147,41,175,35,317,41*6A
$BDGSV,5,5,19,178,55,006,41,179,26,160,41,180,32,185,41,,,,*65
$GPGGA,000210.00,2813.3397787,N,11259.4851852,E,1,17,0.8,70.6765,M,-16.713,M,,*4C
$GPGSV,1,1,00,,,,,,,,,,,,,,,,*79
$BDGSV,5,1,19,147,36,197,41,156,20,165,41,150,42,213,41,153,49,320,41*67
$BDGSV,5,2,19,145,23,251,41,143,59,185,42,144,31,112,41,141,44,126,36*65
$BDGSV,5,3,19,142,45,231,41,148,51,342,44,188,70,353,41,159,63,274,41*63
$BDGSV,5,4,19,160,52,026,41,169,79,184,41,170,24,147,41,175,35,317,41*6A
$BDGSV,5,5,19,178,55,006,41,179,26,160,41,180,32,185,41,,,,*65
$GPGGA,000211.00,2813.3397788,N,11259.4851851,E,1,17,0.8,70.6782,M,-16.713,M,,*48
$GPGSV,1,1,00,,,,,,,,,,,,,,,,*79
$BDGSV,5,1,19,147,36,197,41,156,20,165,41,150,42,213,41,153,49,320,41*67
$BDGSV,5,2,19,145,23,251,41,143,59,185,41,144,31,112,41,141,44,126,36*66
$BDGSV,5,3,19,142,45,231,41,148,51,342,44,188,70,353,41,159,63,274,41*63
$BDGSV,5,4,19,160,52,026,41,169,79,184,40,170,24,147,41,175,35,317,41*6B
$BDGSV,5,5,19,178,55,006,41,179,26,160,41,180,32,185,41,,,,*65
$GPGGA,000212.00,2813.3397786,N,11259.4851880,E,1,17,0.8,70.6687,M,-16.713,M,,*4D
$GPGSV,1,1,00,,,,,,,,,,,,,,,,*79
$BDGSV,5,1,19,147,36,197,41,156,20,165,41,150,42,213,41,153,49,320,41*67
$BDGSV,5,2,19,145,23,251,41,143,59,185,41,144,31,112,41,141,44,126,37*67
$BDGSV,5,3,19,142,45,231,41,148,51,342,44,188,70,353,41,159,63,274,41*63
$BDGSV,5,4,19,160,52,026,41,169,79,184,41,170,24,147,41,175,35,317,41*6A
$BDGSV,5,5,19,178,55,006,41,179,26,160,41,180,32,185,41,,,,*65
$GPGGA,000213.00,2813.3397780,N,11259.4851894,E,1,17,0.8,70.6641,M,-16.713,M,,*45
$GPGSV,1,1,00,,,,,,,,,,,,,,,,*79
$BDGSV,5,1,19,147,36,197,41,156,20,165,41,150,42,213,41,153,49,320,41*67
$BDGSV,5,2,19,145,23,251,41,143,59,185,40,144,31,112,41,141,44,126,35*64
$BDGSV,5,3,19,142,45,231,41,148,51,342,44,188,70,353,41,159,63,274,41*63
$BDGSV,5,4,19,160,52,026,41,169,79,184,41,170,24,147,41,175,35,317,41*6A
$BDGSV,5,5,19,178,55,006,41,179,26,160,41,180,32,185,41,,,,*65
$GPGGA,000214.00,2813.3397786,N,11259.4851914,E,1,17,0.8,70.6619,M,-16.713,M,,*40
$GPGSV,1,1,00,,,,,,,,,,,,,,,,*79
$BDGSV,5,1,19,147,36,197,41,156,20,165,41,150,42,213,41,153,49,320,41*67
$BDGSV,5,2,19,145,23,251,41,143,59,185,41,144,31,112,41,141,44,126,35*65
$BDGSV,5,3,19,142,45,231,41,148,51,342,44,188,70,353,41,159,63,274,41*63
$BDGSV,5,4,19,160,52,026,41,169,79,184,41,170,24,147,41,175,35,317,41*6A
$BDGSV,5,5,19,178,55,006,41,179,26,160,41,180,32,185,41,,,,*65
$GPGGA,000215.00,2813.3397786,N,11259.4851935,E,1,17,0.8,70.6614,M,-16.713,M,,*4F
$GPGSV,1,1,00,,,,,,,,,,,,,,,,*79
$BDGSV,5,1,19,147,36,197,41,156,20,165,41,150,42,213,41,153,49,320,41*67
$BDGSV,5,2,19,145,23,251,41,143,59,185,41,144,31,112,41,141,44,126,35*65
$BDGSV,5,3,19,142,45,231,41,148,51,342,44,188,70,353,41,159,63,274,41*63
$BDGSV,5,4,19,160,52,026,41,169,79,184,41,170,24,147,41,175,35,317,41*6A
$BDGSV,5,5,19,178,55,006,41,179,26,160,41,180,32,185,41,,,,*65
$GPGGA,000216.00,2813.3397795,N,11259.4851959,E,1,17,0.8,70.6545,M,-16.713,M,,*43
$GPGSV,1,1,00,,,,,,,,,,,,,,,,*79
$BDGSV,5,1,19,147,36,197,41,156,20,165,41,150,42,213,41,153,49,320,41*67
$BDGSV,5,2,19,145,23,251,41,143,59,185,41,144,31,112,41,141,44,126,36*66
$BDGSV,5,3,19,142,45,231,41,148,51,342,44,188,70,353,41,159,63,274,41*63
$BDGSV,5,4,19,160,52,026,41,169,79,184,41,170,24,147,41,175,35,317,41*6A
$BDGSV,5,5,19,178,55,006,41,179,26,160,41,180,32,185,41,,,,*65
$GPGGA,000217.00,2813.3397795,N,11259.4851959,E,1,17,0.8,70.6537,M,-16.713,M,,*47
$GPGSV,1,1,00,,,,,,,,,,,,,,,,*79
$BDGSV,5,1,19,147,36,197,41,156,20,165,41,150,42,213,41,153,49,320,41*67
$BDGSV,5,2,19,145,23,251,41,143,59,185,41,144,31,112,41,141,44,126,36*66
$BDGSV,5,3,19,142,45,231,41,148,51,342,44,188,70,353,41,159,63,274,41*63
$BDGSV,5,4,19,160,52,026,41,169,79,184,41,170,24,147,41,175,35,317,41*6A
$BDGSV,5,5,19,178,55,006,41,179,26,160,41,180,32,185,41,,,,*65
$GPGGA,000218.00,2813.3397787,N,11259.4851958,E,1,17,0.8,70.6575,M,-16.713,M,,*4C
$GPGSV,1,1,00,,,,,,,,,,,,,,,,*79
$BDGSV,5,1,19,147,36,197,41,156,20,165,41,150,42,213,41,153,49,320,41*67
$BDGSV,5,2,19,145,23,251,41,143,59,185,41,144,31,112,41,141,44,126,35*65
$BDGSV,5,3,19,142,45,231,41,148,51,342,44,188,70,353,41,159,63,274,41*63
$BDGSV,5,4,19,160,52,026,41,169,79,184,41,170,24,147,41,175,35,317,41*6A
$BDGSV,5,5,19,178,55,006,41,179,26,160,41,180,32,185,41,,,,*65
$GPGGA,000219.00,2813.3397791,N,11259.4851979,E,1,17,0.8,70.6489,M,-16.713,M,,*4B
$GPGSV,1,1,00,,,,,,,,,,,,,,,,*79
$BDGSV,5,1,19,147,36,197,41,156,20,165,41,150,42,213,41,153,49,320,41*67
$BDGSV,5,2,19,145,23,251,41,143,59,185,41,144,31,112,41,141,44,126,35*65
$BDGSV,5,3,19,142,45,231,41,148,51,342,44,188,70,353,41,159,63,274,41*63
$BDGSV,5,4,19,160,52,026,41,169,79,184,41,170,24,147,41,175,35,317,41*6A
$BDGSV,5,5,19,178,55,006,41,179,26,160,41,180,32,185,41,,,,*65
$GPGGA,000220.00,2813.3397800,N,11259.4852004,E,1,17,0.8,70.6396,M,-16.713,M,,*4F
$GPGSV,1,1,00,,,,,,,,,,,,,,,,*79
$BDGSV,5,1,19,147,36,197,41,156,20,165,41,150,42,213,41,153,49,320,41*67
$BDGSV,5,2,19,145,23,251,41,143,59,185,40,144,31,112,41,141,44,126,35*64
$BDGSV,5,3,19,142,45,231,41,148,51,342,44,188,70,353,41,159,63,274,41*63
$BDGSV,5,4,19,160,52,026,41,169,79,184,41,170,24,147,41,175,35,317,41*6A
$BDGSV,5,5,19,178,55,006,41,179,26,160,41,180,32,185,41,,,,*65
$GPGGA,000221.00,2813.3397811,N,11259.4852002,E,1,17,0.8,70.6351,M,-16.713,M,,*43
$GPGSV,1,1,00,,,,,,,,,,,,,,,,*79
$BDGSV,5,1,19,147,36,197,41,156,20,165,42,150,42,213,41,153,49,320,41*64
$BDGSV,5,2,19,145,23,251,41,143,59,185,41,144,31,112,41,141,44,126,35*65
$BDGSV,5,3,19,142,45,231,41,148,51,342,44,188,70,353,41,159,63,274,41*63
$BDGSV,5,4,19,160,52,026,41,169,79,184,41,170,24,147,41,175,35,317,41*6A
$BDGSV,5,5,19,178,55,006,41,179,26,160,41,180,32,185,41,,,,*65
$GPGGA,000222.00,2813.3397810,N,11259.4852020,E,1,17,0.8,70.6305,M,-16.713,M,,*40
$GPGSV,1,1,00,,,,,,,,,,,,,,,,*79
$BDGSV,5,1,19,147,36,197,41,156,20,165,41,150,42,213,41,153,49,320,41*67
$BDGSV,5,2,19,145,23,251,41,143,59,185,42,144,31,112,41,141,44,126,35*66
$BDGSV,5,3,19,142,45,231,41,148,51,342,44,188,70,353,41,159,63,274,41*63
$BDGSV,5,4,19,160,52,026,41,169,79,184,41,170,24,147,41,175,35,317,41*6A
$BDGSV,5,5,19,178,55,006,41,179,26,160,41,180,32,185,41,,,,*65
$GPGGA,000223.00,2813.3397802,N,11259.4852040,E,1,17,0.8,70.6244,M,-16.713,M,,*40
$GPGSV,1,1,00,,,,,,,,,,,,,,,,*79
$BDGSV,5,1,19,147,36,197,41,156,20,165,41,150,42,213,41,153,49,320,41*67
$BDGSV,5,2,19,145,23,251,41,143,59,185,42,144,31,112,41,141,44,126,37*64
$BDGSV,5,3,19,142,45,231,41,148,51,342,44,188,70,353,41,159,63,274,41*63
$BDGSV,5,4,19,160,52,026,41,169,79,184,41,170,24,147,41,175,35,317,41*6A
$BDGSV,5,5,19,178,55,006,41,179,26,160,41,180,32,185,41,,,,*65
$GPGGA,000224.00,2813.3397802,N,11259.4852067,E,1,17,0.8,70.6175,M,-16.713,M,,*43
$GPGSV,1,1,00,,,,,,,,,,,,,,,,*79
$BDGSV,5,1,19,147,36,197,41,156,20,165,41,150,42,213,41,153,49,320,41*67
$BDGSV,5,2,19,145,23,251,41,143,59,185,41,144,31,112,41,141,44,126,36*66
$BDGSV,5,3,19,142,45,231,41,148,51,342,44,188,70,353,41,159,63,274,41*63
$BDGSV,5,4,19,160,52,026,41,169,79,184,41,170,24,147,41,175,35,317,41*6A
$BDGSV,5,5,19,178,55,006,41,179,26,160,41,180,32,185,41,,,,*65
$GPGGA,000225.00,2813.3397801,N,11259.4852064,E,1,17,0.8,70.6190,M,-16.713,M,,*49
$GPGSV,1,1,00,,,,,,,,,,,,,,,,*79
$BDGSV,5,1,19,147,36,197,41,156,20,165,41,150,42,213,41,153,49,320,41*67
$BDGSV,5,2,19,145,23,251,41,143,59,185,41,144,31,112,42,141,44,126,36*65
$BDGSV,5,3,19,142,45,231,41,148,51,342,44,188,70,353,41,159,63,274,41*63
$BDGSV,5,4,19,160,52,026,41,169,79,184,41,170,24,147,41,175,35,317,41*6A
$BDGSV,5,5,19,178,55,006,41,179,26,160,41,180,32,185,41,,,,*65
$GPGGA,000226.00,2813.3397800,N,11259.4852080,E,1,17,0.8,70.6143,M,-16.713,M,,*4F
$GPGSV,1,1,00,,,,,,,,,,,,,,,,*79
$BDGSV,5,1,19,147,36,197,41,156,20,165,41,150,42,213,41,153,49,320,41*67
$BDGSV,5,2,19,145,23,251,42,143,59,185,41,144,31,112,41,141,44,126,35*66
$BDGSV,5,3,19,142,45,231,41,148,51,342,44,188,70,353,41,159,63,274,41*63
$BDGSV,5,4,19,160,52,026,41,169,79,184,41,170,24,147,41,175,35,317,41*6A
$BDGSV,5,5,19,178,55,006,41,179,26,160,41,180,32,185,41,,,,*65
$GPGGA,000227.00,2813.3397797,N,11259.4852110,E,1,17,0.8,70.6047,M,-16.713,M,,*42
$GPGSV,1,1,00,,,,,,,,,,,,,,,,*79
$BDGSV,5,1,19,147,36,197,41,156,20,165,42,150,42,213,41,153,49,320,41*64
$BDGSV,5,2,19,145,23,251,41,143,59,185,41,144,31,112,42,141,44,126,36*65
$BDGSV,5,3,19,142,45,231,41,148,51,342,44,188,70,353,41,159,63,274,42*60
$BDGSV,5,4,19,160,52,026,42,169,79,184,41,170,24,147,41,175,35,317,42*6A
$BDGSV,5,5,19,178,55,006,41,179,26,160,41,180,32,185,42,,,,*66
$GPGGA,000228.00,2813.3397799,N,11259.4852129,E,1,17,0.8,70.6000,M,-16.713,M,,*4A
$GPGSV,1,1,00,,,,,,,,,,,,,,,,*79
$BDGSV,5,1,19,147,36,197,41,156,20,165,41,150,42,213,41,153,49,320,41*67
$BDGSV,5,2,19,145,23,251,41,143,59,185,41,144,31,112,41,141,44,126,36*66
$BDGSV,5,3,19,142,45,231,41,148,51,342,44,188,70,353,41,159,63,274,41*63
$BDGSV,5,4,19,160,52,026,41,169,79,184,41,170,24,147,41,175,35,317,41*6A
$BDGSV,5,5,19,178,55,006,41,179,26,160,41,180,32,185,41,,,,*65
$GPGGA,000229.00,2813.3397808,N,11259.4852120,E,1,17,0.8,70.5994,M,-16.713,M,,*42
$GPGSV,1,1,00,,,,,,,,,,,,,,,,*79
$BDGSV,5,1,19,147,36,197,41,156,20,165,41,150,42,213,42,153,49,320,41*64
$BDGSV,5,2,19,145,23,251,41,143,59,185,41,144,31,112,41,141,44,126,36*66
$BDGSV,5,3,19,142,45,231,41,148,51,342,44,188,70,353,41,159,63,274,41*63
$BDGSV,5,4,19,160,52,026,41,169,79,184,41,170,24,147,41,175,35,317,41*6A
$BDGSV,5,5,19,178,55,006,41,179,26,160,41,180,32,185,41,,,,*65
$GPGGA,000230.00,2813.3397811,N,11259.4852136,E,1,17,0.8,70.6039,M,-16.713,M,,*48
$GPGSV,1,1,00,,,,,,,,,,,,,,,,*79
$BDGSV,5,1,19,147,36,197,41,156,20,165,41,150,42,213,41,153,49,320,41*67
$BDGSV,5,2,19,145,23,251,41,143,59,185,41,144,31,112,41,141,44,126,36*66
$BDGSV,5,3,19,142,45,231,41,148,51,342,44,188,70,353,41,159,63,274,41*63
$BDGSV,5,4,19,160,52,026,41,169,79,184,41,170,24,147,41,175,35,317,41*6A
$BDGSV,5,5,19,178,55,006,41,179,26,160,41,180,32,185,42,,,,*66
$GPGGA,000231.00,2813.3397815,N,11259.4852158,E,1,17,0.8,70.5984,M,-16.713,M,,*49
$GPGSV,1,1,00,,,,,,,,,,,,,,,,*79
$BDGSV,5,1,19,147,36,197,41,156,20,165,41,150,42,213,41,153,49,320,41*67
$BDGSV,5,2,19,145,23,251,42,143,59,185,41,144,31,112,41,141,44,126,36*65
$BDGSV,5,3,19,142,45,231,41,148,51,342,44,188,70,353,41,159,63,274,41*63
$BDGSV,5,4,19,160,52,026,41,169,79,184,41,170,24,147,41,175,35,317,41*6A
$BDGSV,5,5,19,178,55,006,42,179,26,160,41,180,32,185,41,,,,*66
$GPGGA,000232.00,2813.3397825,N,11259.4852165,E,1,17,0.8,70.6024,M,-16.713,M,,*47
$GPGSV,1,1,00,,,,,,,,,,,,,,,,*79
$BDGSV,5,1,19,147,36,197,41,156,20,165,41,150,42,213,41,153,49,320,41*67
$BDGSV,5,2,19,145,23,251,41,143,59,185,40,144,31,112,41,141,44,126,36*67
$BDGSV,5,3,19,142,45,231,41,148,51,342,44,188,70,353,41,159,63,274,41*63
$BDGSV,5,4,19,160,52,026,41,169,78,184,41,170,24,147,41,175,35,317,41*6B
$BDGSV,5,5,19,178,55,006,41,179,26,160,41,180,32,185,41,,,,*65
$GPGGA,000233.00,2813.3397815,N,11259.4852161,E,1,17,0.8,70.6088,M,-16.713,M,,*47
$GPGSV,1,1,00,,,,,,,,,,,,,,,,*79
$BDGSV,5,1,19,147,36,197,41,156,20,165,41,150,42,213,41,153,49,320,41*67
$BDGSV,5,2,19,145,23,251,41,143,59,185,41,144,31,112,41,141,44,126,36*66
$BDGSV,5,3,19,142,45,231,41,148,51,342,44,188,70,353,41,159,63,275,41*62
$BDGSV,5,4,19,160,52,026,41,169,78,184,41,170,24,147,41,175,35,317,41*6B
$BDGSV,5,5,19,178,55,006,42,179,26,160,41,180,32,185,42,,,,*65
$GPGGA,000234.00,2813.3397818,N,11259.4852154,E,1,17,0.8,70.6102,M,-16.713,M,,*48
$GPGSV,1,1,00,,,,,,,,,,,,,,,,*79
$BDGSV,5,1,19,147,36,197,41,156,20,165,41,150,42,213,41,153,49,320,41*67
$BDGSV,5,2,19,145,23,251,41,143,59,185,41,144,31,112,41,141,44,126,35*65
$BDGSV,5,3,19,142,45,231,41,148,51,342,44,188,70,353,41,159,63,275,41*62
$BDGSV,5,4,19,160,52,026,41,169,78,184,41,170,24,147,41,175,35,317,42*68
$BDGSV,5,5,19,178,55,006,41,179,26,160,41,180,32,185,41,,,,*65
$GPGGA,000235.00,2813.3397819,N,11259.4852167,E,1,17,0.8,70.6074,M,-16.713,M,,*48
$GPGSV,1,1,00,,,,,,,,,,,,,,,,*79
$BDGSV,5,1,19,147,36,197,41,156,20,165,41,150,42,213,41,153,49,320,41*67
$BDGSV,5,2,19,145,23,251,42,143,59,185,42,144,31,112,41,141,44,126,36*66
$BDGSV,5,3,19,142,45,231,41,148,72,163,44,188,70,353,41,159,63,275,42*61
$BDGSV,5,4,19,160,52,026,41,169,78,184,41,170,24,147,41,175,35,317,41*6B
$BDGSV,5,5,19,178,55,006,41,179,26,160,41,180,32,185,41,,,,*65
$GPGGA,000236.00,2813.3397810,N,11259.4852162,E,1,17,0.8,70.6145,M,-16.713,M,,*44
$GPGSV,1,1,00,,,,,,,,,,,,,,,,*79
$BDGSV,5,1,19,147,36,197,41,156,20,165,41,150,42,213,41,153,49,320,41*67
$BDGSV,5,2,19,145,23,251,41,143,59,185,42,144,31,112,41,141,44,126,36*65
$BDGSV,5,3,19,142,45,231,41,148,72,163,44,188,70,353,41,159,63,275,41*62
$BDGSV,5,4,19,160,52,026,41,169,78,184,41,170,24,147,41,175,35,317,41*6B
$BDGSV,5,5,19,178,55,006,41,179,26,160,41,180,32,185,41,,,,*65
$GPGGA,000237.00,2813.3397805,N,11259.4852162,E,1,17,0.8,70.6155,M,-16.713,M,,*40
$GPGSV,1,1,00,,,,,,,,,,,,,,,,*79
$BDGSV,5,1,19,147,36,197,41,156,20,165,41,150,42,213,41,153,49,320,41*67
$BDGSV,5,2,19,145,23,251,41,143,59,185,42,144,31,112,42,141,44,126,36*66
$BDGSV,5,3,19,142,45,231,41,148,51,342,44,188,70,353,41,159,63,275,41*62
$BDGSV,5,4,19,160,52,026,41,169,78,184,41,170,24,147,41,175,35,317,41*6B
$BDGSV,5,5,19,178,55,006,41,179,26,160,41,180,32,185,41,,,,*65
$GPGGA,000238.00,2813.3397796,N,11259.4852163,E,1,17,0.8,70.6213,M,-16.713,M,,*4A
$GPGSV,1,1,00,,,,,,,,,,,,,,,,*79
$BDGSV,5,1,19,147,36,197,41,156,20,165,41,150,42,213,41,153,49,320,41*67
$BDGSV,5,2,19,145,23,251,41,143,59,185,41,144,31,112,41,141,44,126,36*66
$BDGSV,5,3,19,142,45,231,41,148,51,342,44,188,70,353,41,159,63,275,41*62
$BDGSV,5,4,19,160,52,026,41,169,78,184,41,170,24,147,41,175,35,317,41*6B
$BDGSV,5,5,19,178,55,006,41,179,27,160,41,180,32,185,41,,,,*64
$GPGGA,000239.00,2813.3397790,N,11259.4852176,E,1,17,0.8,70.6182,M,-16.713,M,,*42
$GPGSV,1,1,00,,,,,,,,,,,,,,,,*79
$BDGSV,5,1,19,147,36,197,41,156,20,165,41,150,42,213,41,153,49,320,41*67
$BDGSV,5,2,19,145,23,251,41,143,59,185,41,144,31,112,41,141,44,126,35*65
$BDGSV,5,3,19,142,45,231,41,148,51,342,44,188,70,353,41,159,63,275,41*62
$BDGSV,5,4,19,160,52,026,41,169,78,184,41,170,24,147,41,175,35,317,41*6B
$BDGSV,5,5,19,178,55,006,41,179,27,160,41,180,32,185,41,,,,*64
$GPGGA,000240.00,2813.3397794,N,11259.4852189,E,1,17,0.8,70.6129,M,-16.713,M,,*49
$GPGSV,1,1,00,,,,,,,,,,,,,,,,*79
$BDGSV,5,1,19,147,36,197,41,156,20,165,41,150,42,213,41,153,49,320,41*67
$BDGSV,5,2,19,145,23,251,41,143,59,185,40,144,31,112,41,141,44,126,35*64
$BDGSV,5,3,19,142,45,231,41,148,51,342,44,188,70,353,41,159,63,275,41*62
$BDGSV,5,4,19,160,52,026,41,169,78,183,41,170,24,147,41,175,35,317,41*6C
$BDGSV,5,5,19,178,55,006,41,179,27,160,41,180,32,185,41,,,,*64
$GPGGA,000241.00,2813.3397801,N,11259.4852203,E,1,17,0.8,70.6094,M,-16.713,M,,*4D
$GPGSV,1,1,00,,,,,,,,,,,,,,,,*79
$BDGSV,5,1,19,147,36,197,41,156,20,165,41,150,42,213,41,153,49,320,42*64
$BDGSV,5,2,19,145,23,251,41,143,59,185,41,144,31,112,41,141,44,126,35*65
$BDGSV,5,3,19,142,45,231,41,148,51,342,44,188,70,353,41,159,63,275,41*62
$BDGSV,5,4,19,160,52,026,41,169,78,183,41,170,24,147,41,175,35,317,41*6C
$BDGSV,5,5,19,178,55,006,41,179,27,160,41,180,32,185,41,,,,*64
$GPGGA,000242.00,2813.3397798,N,11259.4852221,E,1,17,0.8,70.6046,M,-16.713,M,,*4E
$GPGSV,1,1,00,,,,,,,,,,,,,,,,*79
$BDGSV,5,1,19,147,36,197,41,156,20,165,41,150,42,213,41,153,49,320,41*67
$BDGSV,5,2,19,145,23,251,41,143,59,185,42,144,31,112,41,141,44,126,35*66
$BDGSV,5,3,19,142,45,231,41,148,51,342,44,188,70,353,41,159,63,275,41*62
$BDGSV,5,4,19,160,52,026,41,169,78,183,41,170,24,147,41,175,35,317,41*6C
$BDGSV,5,5,19,178,55,006,41,179,27,160,41,180,32,185,41,,,,*64
$GPGGA,000243.00,2813.3397792,N,11259.4852241,E,1,17,0.8,70.5971,M,-16.713,M,,*4D
$GPGSV,1,1,00,,,,,,,,,,,,,,,,*79
$BDGSV,5,1,19,147,36,197,41,156,20,165,41,150,42,213,41,153,49,320,42*64
$BDGSV,5,2,19,145,23,251,41,143,59,185,42,144,31,112,41,141,44,126,36*65
$BDGSV,5,3,19,142,45,231,41,148,51,342,44,188,70,353,41,159,63,275,41*62
$BDGSV,5,4,19,160,52,026,41,169,78,183,41,170,24,147,41,175,35,317,41*6C
$BDGSV,5,5,19,178,55,006,41,179,27,160,41,180,32,185,41,,,,*64
$GPGGA,000244.00,2813.3397797,N,11259.4852260,E,1,17,0.8,70.5920,M,-16.713,M,,*48
$GPGSV,1,1,00,,,,,,,,,,,,,,,,*79
$BDGSV,5,1,19,147,36,197,41,156,20,165,41,150,42,213,41,153,49,320,41*67
$BDGSV,5,2,19,145,23,251,41,143,59,185,41,144,31,112,41,141,44,126,36*66
$BDGSV,5,3,19,142,45,231,41,148,51,342,44,188,70,353,41,159,63,275,41*62
$BDGSV,5,4,19,160,52,026,41,169,78,183,41,170,24,147,41,175,35,317,41*6C
$BDGSV,5,5,19,178,55,006,41,179,27,160,41,180,32,185,41,,,,*64
$GPGGA,000245.00,2813.3397803,N,11259.4852250,E,1,17,0.8,70.5915,M,-16.713,M,,*4E
$GPGSV,1,1,00,,,,,,,,,,,,,,,,*79
$BDGSV,5,1,19,147,36,197,41,156,20,165,41,150,41,213,41,153,49,320,41*64
$BDGSV,5,2,19,145,23,251,41,143,59,185,41,144,31,112,41,141,44,126,35*65
$BDGSV,5,3,19,142,45,231,41,148,51,342,44,188,70,353,42,159,63,275,41*61
$BDGSV,5,4,19,160,52,026,42,169,78,183,41,170,24,147,41,175,35,317,41*6F
$BDGSV,5,5,19,178,55,006,41,179,27,160,41,180,32,185,41,,,,*64
$GPGGA,000246.00,2813.3397796,N,11259.4852268,E,1,17,0.8,70.5856,M,-16.713,M,,*43
$GPGSV,1,1,00,,,,,,,,,,,,,,,,*79
$BDGSV,5,1,19,147,36,197,41,156,20,165,41,150,41,213,41,153,49,320,41*64
$BDGSV,5,2,19,145,23,251,41,143,59,185,41,144,31,112,41,141,44,126,34*64
$BDGSV,5,3,19,142,45,231,41,148,51,342,44,188,70,353,41,159,63,275,41*62
$BDGSV,5,4,19,160,52,026,41,169,78,183,41,170,24,147,41,175,35,317,41*6C
$BDGSV,5,5,19,178,55,006,41,179,27,160,41,180,32,185,41,,,,*64
$GPGGA,000247.00,2813.3397789,N,11259.4852283,E,1,17,0.8,70.5770,M,-16.713,M,,*42
$GPGSV,1,1,00,,,,,,,,,,,,,,,,*79
$BDGSV,5,1,19,147,36,197,42,156,20,165,41,150,41,213,41,153,49,320,41*67
$BDGSV,5,2,19,145,23,251,42,143,59,185,41,144,31,112,41,141,44,126,34*67
$BDGSV,5,3,19,142,45,231,42,148,51,342,44,188,70,353,42,159,63,275,41*62
$BDGSV,5,4,19,160,52,026,41,169,78,183,41,170,24,147,41,175,35,317,41*6C
$BDGSV,5,5,19,178,55,006,42,179,27,160,41,180,32,185,41,,,,*67
$GPGGA,000248.00,2813.3397785,N,11259.4852303,E,1,17,0.8,70.5741,M,-16.713,M,,*4A
$GPGSV,1,1,00,,,,,,,,,,,,,,,,*79
$BDGSV,5,1,19,147,36,197,41,156,20,165,41,150,41,213,41,153,49,320,41*64
$BDGSV,5,2,19,145,23,251,41,143,59,185,41,144,31,112,41,141,44,126,33*63
$BDGSV,5,3,19,142,45,231,41,148,51,342,44,188,70,353,41,159,63,275,41*62
$BDGSV,5,4,19,160,52,026,41,169,78,183,41,170,24,147,41,175,35,317,41*6C
$BDGSV,5,5,19,178,55,006,41,179,27,160,41,180,32,185,41,,,,*64
$GPGGA,000249.00,2813.3397775,N,11259.4852313,E,1,17,0.8,70.5819,M,-16.713,M,,*47
$GPGSV,1,1,00,,,,,,,,,,,,,,,,*79
$BDGSV,5,1,19,147,36,197,41,156,20,165,41,150,41,213,41,153,49,320,41*64
$BDGSV,5,2,19,145,23,251,41,143,59,185,42,144,31,112,41,141,44,126,34*67
$BDGSV,5,3,19,142,45,231,41,148,51,342,44,188,70,353,41,159,63,275,41*62
$BDGSV,5,4,19,160,52,026,41,169,78,183,41,170,24,147,41,175,35,317,41*6C
$BDGSV,5,5,19,178,55,006,41,179,27,160,41,180,32,185,41,,,,*64
$GPGGA,000250.00,2813.3397780,N,11259.4852321,E,1,17,0.8,70.5759,M,-16.713,M,,*4F
$GPGSV,1,1,00,,,,,,,,,,,,,,,,*79
$BDGSV,5,1,19,147,36,197,41,156,20,165,41,150,41,213,41,153,49,320,41*64
$BDGSV,5,2,19,145,23,251,41,143,59,185,41,144,31,112,41,141,44,126,35*65
$BDGSV,5,3,19,142,45,231,41,148,51,342,44,188,70,353,41,159,63,275,41*62
$BDGSV,5,4,19,160,52,026,41,169,78,183,41,170,24,147,41,175,36,317,41*6F
$BDGSV,5,5,19,178,55,006,41,179,27,160,41,180,32,185,41,,,,*64
$GPGGA,000251.00,2813.3397787,N,11259.4852352,E,1,17,0.8,70.5681,M,-16.713,M,,*49
$GPGSV,1,1,00,,,,,,,,,,,,,,,,*79
$BDGSV,5,1,19,147,36,197,41,156,20,165,41,150,41,213,41,153,49,320,41*64
$BDGSV,5,2,19,145,23,251,41,143,59,185,41,144,31,112,41,141,44,126,35*65
$BDGSV,5,3,19,142,45,231,41,148,51,342,44,188,70,353,41,159,63,275,41*62
$BDGSV,5,4,19,160,52,026,40,169,78,183,41,170,24,147,41,175,36,317,41*6E
$BDGSV,5,5,19,178,55,006,41,179,27,160,41,180,32,185,41,,,,*64
$GPGGA,000252.00,2813.3397791,N,11259.4852372,E,1,17,0.8,70.5682,M,-16.713,M,,*4C
$GPGSV,1,1,00,,,,,,,,,,,,,,,,*79
$BDGSV,5,1,19,147,36,197,41,156,20,165,41,150,41,213,41,153,49,320,41*64
$BDGSV,5,2,19,145,23,251,41,143,59,185,40,144,31,112,41,141,44,126,34*65
$BDGSV,5,3,19,142,45,231,41,148,51,342,44,188,70,353,41,159,63,275,41*62
$BDGSV,5,4,19,160,52,026,41,169,78,183,41,170,24,147,41,175,36,317,41*6F
$BDGSV,5,5,19,178,55,006,41,179,27,160,41,180,32,185,41,,,,*64
$GPGGA,000253.00,2813.3397801,N,11259.4852369,E,1,17,0.8,70.5656,M,-16.713,M,,*48
$GPGSV,1,1,00,,,,,,,,,,,,,,,,*79
$BDGSV,5,1,19,147,36,197,41,156,20,165,41,150,41,213,41,153,49,320,41*64
$BDGSV,5,2,19,145,23,251,41,143,59,185,41,144,31,112,41,141,44,126,34*64
